,Organization Name,Billing Street,Billing City,Billing State/Province (text only),Last Modified Date,Created Date,Created By,Organization Source,Annual Revenue,Phone,Fax,Website,Billing Zip/Postal Code,Billing Country,Type,Oasis Entity ID,DUNS Number,Ultimate DUNS Number,GRID Number,Parent Organization,formatted_address_GoogleSearchAPI,geometry_GoogleSearchAPI,name_GoogleSearchAPI,place_id_GoogleSearchAPI,types_GoogleSearchAPI,rawresult_GoogleSearchAPI,missed_GoogleSearchAPI
0,Yamamura Gakuen College,,Saitama,,7/10/2018,4/23/2018,Web Service,,,,,,,Japan,Education,,,,grid.472153.6,,"604 Ishizaka, Hatoyama, Hiki District, Saitama 350-0311, Japan","{'location': {'lat': 35.997078, 'lng': 139.357679}, 'viewport': {'northeast': {'lat': 35.99842782989273, 'lng': 139.3590288298927}, 'southwest': {'lat': 35.99572817010728, 'lng': 139.3563291701072}}}",Yamamuragakuentanki University,ChIJt210nYcqGWARm3MTvBWu2-g,"['university', 'point_of_interest', 'establishment']","{'formatted_address': '604 Ishizaka, Hatoyama, Hiki District, Saitama 350-0311, Japan', 'geometry': {'location': {'lat': 35.997078, 'lng': 139.357679}, 'viewport': {'northeast': {'lat': 35.99842782989273, 'lng': 139.3590288298927}, 'southwest': {'lat': 35.99572817010728, 'lng': 139.3563291701072}}}, 'name': 'Yamamuragakuentanki University', 'place_id': 'ChIJt210nYcqGWARm3MTvBWu2-g', 'types': ['university', 'point_of_interest', 'establishment']}",False
1,Samara State Technical University,,Samara,,7/10/2018,4/23/2018,Web Service,,,,,,,Russian Federation,Education,,,,grid.445792.9,,"Molodogvardeyskaya Ulitsa, 224, Samara, Samarskaya oblast', Russia, 443001","{'location': {'lat': 53.2091587, 'lng': 50.12544399999999}, 'viewport': {'northeast': {'lat': 53.21042642989272, 'lng': 50.12689817989272}, 'southwest': {'lat': 53.20772677010728, 'lng': 50.12419852010727}}}",Samgtu,ChIJlcrQ1kMeZkER_ED6s8wM9AY,"['university', 'point_of_interest', 'establishment']","{'formatted_address': ""Molodogvardeyskaya Ulitsa, 224, Samara, Samarskaya oblast', Russia, 443001"", 'geometry': {'location': {'lat': 53.2091587, 'lng': 50.12544399999999}, 'viewport': {'northeast': {'lat': 53.21042642989272, 'lng': 50.12689817989272}, 'southwest': {'lat': 53.20772677010728, 'lng': 50.12419852010727}}}, 'name': 'Samgtu', 'place_id': 'ChIJlcrQ1kMeZkER_ED6s8wM9AY', 'types': ['university', 'point_of_interest', 'establishment']}",False
2,Annapolis Maritime Museum,,Annapolis,Maryland,7/10/2018,4/23/2018,Web Service,,,,,,,United States,Archive,,,,grid.448336.e,,"723 2nd St, Annapolis, MD 21403, USA","{'location': {'lat': 38.9688812, 'lng': -76.47629359999999}, 'viewport': {'northeast': {'lat': 38.97018812989273, 'lng': -76.47501607010727}, 'southwest': {'lat': 38.96748847010728, 'lng': -76.47771572989272}}}",Annapolis Maritime Museum,ChIJLwcu3j72t4kRo_qDDn_BH6U,"['museum', 'point_of_interest', 'establishment']","{'formatted_address': '723 2nd St, Annapolis, MD 21403, USA', 'geometry': {'location': {'lat': 38.9688812, 'lng': -76.47629359999999}, 'viewport': {'northeast': {'lat': 38.97018812989273, 'lng': -76.47501607010727}, 'southwest': {'lat': 38.96748847010728, 'lng': -76.47771572989272}}}, 'name': 'Annapolis Maritime Museum', 'place_id': 'ChIJLwcu3j72t4kRo_qDDn_BH6U', 'types': ['museum', 'point_of_interest', 'establishment']}",False
3,GridBridge (United States),,Raleigh,North Carolina,7/10/2018,4/23/2018,Web Service,,,,,,,United States,Corporation,,,,grid.459569.2,,[],[],[],[],[],[],True
4,Integrum (Sweden),,Mölndal,,7/10/2018,4/23/2018,Web Service,,,,,,,Sweden,Corporation,,,,grid.451680.e,,"Krokslätts Fabriker 50, 431 37 Mölndal, Sweden","{'location': {'lat': 57.67009700000001, 'lng': 12.00952}, 'viewport': {'northeast': {'lat': 57.67141117989271, 'lng': 12.01072177989272}, 'southwest': {'lat': 57.66871152010727, 'lng': 12.00802212010728}}}",integrum AB,ChIJq6qq6snzT0YRTgDLHqe7E-M,"['point_of_interest', 'establishment']","{'formatted_address': 'Krokslätts Fabriker 50, 431 37 Mölndal, Sweden', 'geometry': {'location': {'lat': 57.67009700000001, 'lng': 12.00952}, 'viewport': {'northeast': {'lat': 57.67141117989271, 'lng': 12.01072177989272}, 'southwest': {'lat': 57.66871152010727, 'lng': 12.00802212010728}}}, 'name': 'integrum AB', 'place_id': 'ChIJq6qq6snzT0YRTgDLHqe7E-M', 'types': ['point_of_interest', 'establishment']}",False
5,Universitatea Romano-Germana din Sibiu,,Sibiu,,7/10/2018,4/23/2018,Web Service,,,,,,,Romania,Education,,,,grid.445793.8,,"Piața Aurel Vlaicu 11-12, Sibiu 550377, Romania","{'location': {'lat': 45.7827745, 'lng': 24.1491153}, 'viewport': {'northeast': {'lat': 45.78412827989273, 'lng': 24.15070522989272}, 'southwest': {'lat': 45.78142862010728, 'lng': 24.14800557010728}}}",Romanian-German University of Sibiu,ChIJJ6jayJRnTEcRdD2pe6xTenw,"['university', 'point_of_interest', 'establishment']","{'formatted_address': 'Piața Aurel Vlaicu 11-12, Sibiu 550377, Romania', 'geometry': {'location': {'lat': 45.7827745, 'lng': 24.1491153}, 'viewport': {'northeast': {'lat': 45.78412827989273, 'lng': 24.15070522989272}, 'southwest': {'lat': 45.78142862010728, 'lng': 24.14800557010728}}}, 'name': 'Romanian-German University of Sibiu', 'place_id': 'ChIJJ6jayJRnTEcRdD2pe6xTenw', 'types': ['university', 'point_of_interest', 'establishment']}",False
6,Maryland Department of Natural Resources,,Annapolis,Maryland,7/10/2018,4/23/2018,Web Service,,,,,,,United States,Government,,,,grid.448337.f,,"580 Taylor Ave, Annapolis, MD 21401, USA","{'location': {'lat': 38.9853814, 'lng': -76.50364549999999}, 'viewport': {'northeast': {'lat': 38.98687192989272, 'lng': -76.50261102010727}, 'southwest': {'lat': 38.98417227010728, 'lng': -76.50531067989272}}}",Maryland Department of Natural Resources,ChIJR_Pa2fj2t4kRVSPLGLtNrs8,"['point_of_interest', 'establishment']","{'formatted_address': '580 Taylor Ave, Annapolis, MD 21401, USA', 'geometry': {'location': {'lat': 38.9853814, 'lng': -76.50364549999999}, 'viewport': {'northeast': {'lat': 38.98687192989272, 'lng': -76.50261102010727}, 'southwest': {'lat': 38.98417227010728, 'lng': -76.50531067989272}}}, 'name': 'Maryland Department of Natural Resources', 'place_id': 'ChIJR_Pa2fj2t4kRVSPLGLtNrs8', 'types': ['point_of_interest', 'establishment']}",False
7,Hsing Wu University,,Taipei,,7/10/2018,4/23/2018,Web Service,,,,,,,Taiwan,Education,,,,grid.459570.a,,"244, Taiwan, New Taipei City, Linkou District","{'location': {'lat': 25.0781483, 'lng': 121.3960282}, 'viewport': {'northeast': {'lat': 25.07953942989272, 'lng': 121.3974047798927}, 'southwest': {'lat': 25.07683977010727, 'lng': 121.3947051201073}}}",Hsing Wu University,ChIJPVb8E_emQjQRQBC0hxZiCRQ,"['bus_station', 'transit_station', 'point_of_interest', 'establishment']","{'formatted_address': '244, Taiwan, New Taipei City, Linkou District', 'geometry': {'location': {'lat': 25.0781483, 'lng': 121.3960282}, 'viewport': {'northeast': {'lat': 25.07953942989272, 'lng': 121.3974047798927}, 'southwest': {'lat': 25.07683977010727, 'lng': 121.3947051201073}}}, 'name': 'Hsing Wu University', 'place_id': 'ChIJPVb8E_emQjQRQBC0hxZiCRQ', 'types': ['bus_station', 'transit_station', 'point_of_interest', 'establishment']}",False
8,Axcentua (Sweden),,Huddinge,,7/10/2018,4/23/2018,Web Service,,,,,,,Sweden,Corporation,,,,grid.451681.f,,[],[],[],[],[],[],True
9,Gál Ferenc F?iskola,,Szeged,,7/10/2018,4/23/2018,Web Service,,,,,,,Hungary,,,,,grid.445794.f,,[],[],[],[],[],[],True
10,Puget Sound Restoration Fund,,Bainbridge Island,Washington,7/10/2018,4/23/2018,Web Service,,,,,,,United States,Not-for-Profit,,,,grid.448338.0,,"8001 NE Day Rd W, Bainbridge Island, WA 98110, USA","{'location': {'lat': 47.6790915, 'lng': -122.5425749}, 'viewport': {'northeast': {'lat': 47.68060012989272, 'lng': -122.5412239201073}, 'southwest': {'lat': 47.67790047010728, 'lng': -122.5439235798927}}}",Puget Sound Restoration Fund,ChIJJyvQlro-kFQRHyKflIDM290,"['point_of_interest', 'establishment']","{'formatted_address': '8001 NE Day Rd W, Bainbridge Island, WA 98110, USA', 'geometry': {'location': {'lat': 47.6790915, 'lng': -122.5425749}, 'viewport': {'northeast': {'lat': 47.68060012989272, 'lng': -122.5412239201073}, 'southwest': {'lat': 47.67790047010728, 'lng': -122.5439235798927}}}, 'name': 'Puget Sound Restoration Fund', 'place_id': 'ChIJJyvQlro-kFQRHyKflIDM290', 'types': ['point_of_interest', 'establishment']}",False
11,Krankenhaus Köln-Holweide,,Cologne,,7/10/2018,4/23/2018,Web Service,,,,,,,Germany,Healthcare,,,,grid.459571.b,,"Neufelder Str. 32, 51067 Köln, Germany","{'location': {'lat': 50.9669858, 'lng': 7.0562665}, 'viewport': {'northeast': {'lat': 50.96886927989272, 'lng': 7.058188229892722}, 'southwest': {'lat': 50.96616962010728, 'lng': 7.055488570107278}}}",Krankenhaus Holweide,ChIJF69o2X8ov0cR25zV0im4XZ4,"['hospital', 'point_of_interest', 'establishment']","{'formatted_address': 'Neufelder Str. 32, 51067 Köln, Germany', 'geometry': {'location': {'lat': 50.9669858, 'lng': 7.0562665}, 'viewport': {'northeast': {'lat': 50.96886927989272, 'lng': 7.058188229892722}, 'southwest': {'lat': 50.96616962010728, 'lng': 7.055488570107278}}}, 'name': 'Krankenhaus Holweide', 'place_id': 'ChIJF69o2X8ov0cR25zV0im4XZ4', 'types': ['hospital', 'point_of_interest', 'establishment']}",False
12,Hermes Medical Solutions (Sweden),,Stockholm,,7/10/2018,4/23/2018,Web Service,,,,,,,Sweden,Corporation,,,,grid.451682.c,,"Strandbergsgatan 16, 112 51 Stockholm, Sweden","{'location': {'lat': 59.3382184, 'lng': 18.0123995}, 'viewport': {'northeast': {'lat': 59.33958792989271, 'lng': 18.01324537989272}, 'southwest': {'lat': 59.33688827010727, 'lng': 18.01054572010728}}}",Hermes Medical Solutions AB,ChIJ4bW31Px3X0YRUCzmnGvw3Pc,"['health', 'point_of_interest', 'establishment']","{'formatted_address': 'Strandbergsgatan 16, 112 51 Stockholm, Sweden', 'geometry': {'location': {'lat': 59.3382184, 'lng': 18.0123995}, 'viewport': {'northeast': {'lat': 59.33958792989271, 'lng': 18.01324537989272}, 'southwest': {'lat': 59.33688827010727, 'lng': 18.01054572010728}}}, 'name': 'Hermes Medical Solutions AB', 'place_id': 'ChIJ4bW31Px3X0YRUCzmnGvw3Pc', 'types': ['health', 'point_of_interest', 'establishment']}",False
13,Kodolányi János University of Applied Sciences,,Székesfehérvár,,7/10/2018,4/23/2018,Web Service,,,,,,,Hungary,Education,,,,grid.445795.e,,"Orosháza, Gyopárosi út, 5900 Hungary","{'location': {'lat': 46.5636387, 'lng': 20.6356301}, 'viewport': {'northeast': {'lat': 46.56490662989272, 'lng': 20.63681197989272}, 'southwest': {'lat': 46.56220697010728, 'lng': 20.63411232010728}}}",Kodolanyi János Főiskola,ChIJIfIH8EA-REcRxgt8Tjov3o8,"['university', 'point_of_interest', 'establishment']","{'formatted_address': 'Orosháza, Gyopárosi út, 5900 Hungary', 'geometry': {'location': {'lat': 46.5636387, 'lng': 20.6356301}, 'viewport': {'northeast': {'lat': 46.56490662989272, 'lng': 20.63681197989272}, 'southwest': {'lat': 46.56220697010728, 'lng': 20.63411232010728}}}, 'name': 'Kodolanyi János Főiskola', 'place_id': 'ChIJIfIH8EA-REcRxgt8Tjov3o8', 'types': ['university', 'point_of_interest', 'establishment']}",False
14,Farallones Marine Sanctuary Association,,San Francisco,California,7/10/2018,4/23/2018,Web Service,,,,,,,United States,Not-for-Profit,,,,grid.448339.1,,"Farallon Islands, San Francisco, CA, USA","{'location': {'lat': 37.69891, 'lng': -123.003361}, 'viewport': {'northeast': {'lat': 37.77729679999999, 'lng': -122.9983641}, 'southwest': {'lat': 37.6911024, 'lng': -123.1181524}}}",Farallon Islands,ChIJoxsKkbfihYARGnksAcYbM9w,"['natural_feature', 'establishment']","{'formatted_address': 'Farallon Islands, San Francisco, CA, USA', 'geometry': {'location': {'lat': 37.69891, 'lng': -123.003361}, 'viewport': {'northeast': {'lat': 37.77729679999999, 'lng': -122.9983641}, 'southwest': {'lat': 37.6911024, 'lng': -123.1181524}}}, 'name': 'Farallon Islands', 'place_id': 'ChIJoxsKkbfihYARGnksAcYbM9w', 'types': ['natural_feature', 'establishment']}",False
15,Huanghe Science and Technology College,,Zhengzhou,,7/10/2018,4/23/2018,Web Service,,,,,,,China,Education,,,,grid.459572.8,,"Kaituo Rd, Erqi Qu, Zhengzhou Shi, Henan Sheng, China","{'location': {'lat': 34.689431, 'lng': 113.670939}, 'viewport': {'northeast': {'lat': 34.69078167989272, 'lng': 113.6721156298927}, 'southwest': {'lat': 34.68808202010727, 'lng': 113.6694159701073}}}",Huanghe Science & Technology College,ChIJ4bvy_ypp1zURoQFuRP-K6WM,"['university', 'point_of_interest', 'establishment']","{'formatted_address': 'Kaituo Rd, Erqi Qu, Zhengzhou Shi, Henan Sheng, China', 'geometry': {'location': {'lat': 34.689431, 'lng': 113.670939}, 'viewport': {'northeast': {'lat': 34.69078167989272, 'lng': 113.6721156298927}, 'southwest': {'lat': 34.68808202010727, 'lng': 113.6694159701073}}}, 'name': 'Huanghe Science & Technology College', 'place_id': 'ChIJ4bvy_ypp1zURoQFuRP-K6WM', 'types': ['university', 'point_of_interest', 'establishment']}",False
16,Chalmersinvest,,Gothenburg,,7/10/2018,4/23/2018,Web Service,,,,,,,Sweden,Other,,,,grid.451683.d,,[],[],[],[],[],[],True
17,Samara Institute of Management,,Samara,,7/10/2018,4/23/2018,Web Service,,,,,,,Russian Federation,Facility,,,,grid.445796.d,,"Ulitsa Volgina, 117, Samara, Samarskaya oblast', Russia, 443069","{'location': {'lat': 53.1940803, 'lng': 50.1855995}, 'viewport': {'northeast': {'lat': 53.19536827989272, 'lng': 50.18695572989272}, 'southwest': {'lat': 53.19266862010728, 'lng': 50.18425607010727}}}",Samara Institute of Management,ChIJA0rxSSQcZkERJHlomqXydy0,"['university', 'point_of_interest', 'establishment']","{'formatted_address': ""Ulitsa Volgina, 117, Samara, Samarskaya oblast', Russia, 443069"", 'geometry': {'location': {'lat': 53.1940803, 'lng': 50.1855995}, 'viewport': {'northeast': {'lat': 53.19536827989272, 'lng': 50.18695572989272}, 'southwest': {'lat': 53.19266862010728, 'lng': 50.18425607010727}}}, 'name': 'Samara Institute of Management', 'place_id': 'ChIJA0rxSSQcZkERJHlomqXydy0', 'types': ['university', 'point_of_interest', 'establishment']}",False
18,Arizona State Land Department,,Phoenix,Arizona,7/10/2018,4/23/2018,Web Service,,,,,,,United States,Government,,,,grid.448340.f,,"1616 W Adams St, Phoenix, AZ 85007, USA","{'location': {'lat': 33.4495338, 'lng': -112.0939148}, 'viewport': {'northeast': {'lat': 33.45075922989272, 'lng': -112.0925637701073}, 'southwest': {'lat': 33.44805957010728, 'lng': -112.0952634298927}}}",Arizona State Land Department,ChIJw7xuQC0SK4cR7OifSy6DzUE,"['point_of_interest', 'local_government_office', 'establishment']","{'formatted_address': '1616 W Adams St, Phoenix, AZ 85007, USA', 'geometry': {'location': {'lat': 33.4495338, 'lng': -112.0939148}, 'viewport': {'northeast': {'lat': 33.45075922989272, 'lng': -112.0925637701073}, 'southwest': {'lat': 33.44805957010728, 'lng': -112.0952634298927}}}, 'name': 'Arizona State Land Department', 'place_id': 'ChIJw7xuQC0SK4cR7OifSy6DzUE', 'types': ['point_of_interest', 'local_government_office', 'establishment']}",False
19,Gritek (China),,Haidian,,7/10/2018,4/23/2018,Web Service,,,,,,,China,Corporation,,,,grid.459573.9,,"2 Xinjiekou Outer St, Bei Tai Ping Zhuang, Xicheng Qu, Beijing Shi, China","{'location': {'lat': 39.967472, 'lng': 116.371353}, 'viewport': {'northeast': {'lat': 39.96882417989272, 'lng': 116.3727941298928}, 'southwest': {'lat': 39.96612452010728, 'lng': 116.3700944701073}}}",Youyan Semiconductor Material Company Limited,ChIJw9iUbYJT8DURpZuvu-CG6Hk,"['point_of_interest', 'establishment']","{'formatted_address': '2 Xinjiekou Outer St, Bei Tai Ping Zhuang, Xicheng Qu, Beijing Shi, China', 'geometry': {'location': {'lat': 39.967472, 'lng': 116.371353}, 'viewport': {'northeast': {'lat': 39.96882417989272, 'lng': 116.3727941298928}, 'southwest': {'lat': 39.96612452010728, 'lng': 116.3700944701073}}}, 'name': 'Youyan Semiconductor Material Company Limited', 'place_id': 'ChIJw9iUbYJT8DURpZuvu-CG6Hk', 'types': ['point_of_interest', 'establishment']}",False
20,Intelligent Machines (Sweden),,Bromma,,7/10/2018,4/23/2018,Web Service,,,,,,,Sweden,Corporation,,,,grid.451684.a,,"Linta gårdsväg 5, 168 74 Bromma, Sweden","{'location': {'lat': 59.34484579999999, 'lng': 17.9500762}, 'viewport': {'northeast': {'lat': 59.34613577989271, 'lng': 17.95145637989272}, 'southwest': {'lat': 59.34343612010726, 'lng': 17.94875672010728}}}",Intelligent Machines Stockholm AB,ChIJfUfBvf-dX0YR_AqWNkxtb3E,"['point_of_interest', 'establishment']","{'formatted_address': 'Linta gårdsväg 5, 168 74 Bromma, Sweden', 'geometry': {'location': {'lat': 59.34484579999999, 'lng': 17.9500762}, 'viewport': {'northeast': {'lat': 59.34613577989271, 'lng': 17.95145637989272}, 'southwest': {'lat': 59.34343612010726, 'lng': 17.94875672010728}}}, 'name': 'Intelligent Machines Stockholm AB', 'place_id': 'ChIJfUfBvf-dX0YR_AqWNkxtb3E', 'types': ['point_of_interest', 'establishment']}",False
21,Lutsk National Technical University,,Lutsk,,7/10/2018,4/23/2018,Web Service,,,,,,,Ukraine,Education,,,,grid.445797.c,,"Lvivska St, 75, Luts'k, Volyns'ka oblast, Ukraine, 43000","{'location': {'lat': 50.72581030000001, 'lng': 25.2960849}, 'viewport': {'northeast': {'lat': 50.72717412989273, 'lng': 25.29733437989272}, 'southwest': {'lat': 50.72447447010729, 'lng': 25.29463472010728}}}",Lutsk National Technical University,ChIJF5j5cJ-ZJUcRT6Ay8h0GsyQ,"['university', 'point_of_interest', 'establishment']","{'formatted_address': ""Lvivska St, 75, Luts'k, Volyns'ka oblast, Ukraine, 43000"", 'geometry': {'location': {'lat': 50.72581030000001, 'lng': 25.2960849}, 'viewport': {'northeast': {'lat': 50.72717412989273, 'lng': 25.29733437989272}, 'southwest': {'lat': 50.72447447010729, 'lng': 25.29463472010728}}}, 'name': 'Lutsk National Technical University', 'place_id': 'ChIJF5j5cJ-ZJUcRT6Ay8h0GsyQ', 'types': ['university', 'point_of_interest', 'establishment']}",False
22,Massachusetts Department of Conservation and Recreation,,Boston,Massachusetts,7/10/2018,4/23/2018,Web Service,,,,,,,United States,Government,,,,grid.448341.e,,"251 Causeway St #900, Boston, MA 02114, USA","{'location': {'lat': 42.366323, 'lng': -71.058897}, 'viewport': {'northeast': {'lat': 42.36777342989273, 'lng': -71.05764427010728}, 'southwest': {'lat': 42.36507377010729, 'lng': -71.06034392989272}}}",Department of Conservation and Recreation,ChIJw_wFf45w44kR-SrQJhfw3GQ,"['point_of_interest', 'local_government_office', 'establishment']","{'formatted_address': '251 Causeway St #900, Boston, MA 02114, USA', 'geometry': {'location': {'lat': 42.366323, 'lng': -71.058897}, 'viewport': {'northeast': {'lat': 42.36777342989273, 'lng': -71.05764427010728}, 'southwest': {'lat': 42.36507377010729, 'lng': -71.06034392989272}}}, 'name': 'Department of Conservation and Recreation', 'place_id': 'ChIJw_wFf45w44kR-SrQJhfw3GQ', 'types': ['point_of_interest', 'local_government_office', 'establishment']}",False
23,Haradoi Hospital,,Fukuoka,,7/10/2018,4/23/2018,Web Service,,,,,,,Japan,Healthcare,,,,grid.459574.e,,"6 Chome-40-番8号 Aoba, Higashi Ward, Fukuoka, 813-0025, Japan","{'location': {'lat': 33.644904, 'lng': 130.468648}, 'viewport': {'northeast': {'lat': 33.64638587989272, 'lng': 130.4699693798927}, 'southwest': {'lat': 33.64368622010727, 'lng': 130.4672697201073}}}",Haradoi Hospital,ChIJRX-pgmCPQTURJyuqreEePvo,"['health', 'hospital', 'point_of_interest', 'establishment']","{'formatted_address': '6 Chome-40-番8号 Aoba, Higashi Ward, Fukuoka, 813-0025, Japan', 'geometry': {'location': {'lat': 33.644904, 'lng': 130.468648}, 'viewport': {'northeast': {'lat': 33.64638587989272, 'lng': 130.4699693798927}, 'southwest': {'lat': 33.64368622010727, 'lng': 130.4672697201073}}}, 'name': 'Haradoi Hospital', 'place_id': 'ChIJRX-pgmCPQTURJyuqreEePvo', 'types': ['health', 'hospital', 'point_of_interest', 'establishment']}",False
24,Axiomatics (Sweden),,Stockholm,,7/10/2018,4/23/2018,Web Service,,,,,,,Sweden,Corporation,,,,grid.451685.b,,"Västmannagatan 4, 111 24 Stockholm, Sweden","{'location': {'lat': 59.33596739999999, 'lng': 18.0539251}, 'viewport': {'northeast': {'lat': 59.33727227989272, 'lng': 18.05522067989272}, 'southwest': {'lat': 59.33457262010727, 'lng': 18.05252102010728}}}",Axiomatics,ChIJe7mELP13X0YRqEKKcpo33js,"['point_of_interest', 'establishment']","{'formatted_address': 'Västmannagatan 4, 111 24 Stockholm, Sweden', 'geometry': {'location': {'lat': 59.33596739999999, 'lng': 18.0539251}, 'viewport': {'northeast': {'lat': 59.33727227989272, 'lng': 18.05522067989272}, 'southwest': {'lat': 59.33457262010727, 'lng': 18.05252102010728}}}, 'name': 'Axiomatics', 'place_id': 'ChIJe7mELP13X0YRqEKKcpo33js', 'types': ['point_of_interest', 'establishment']}",False
25,College of Szolnok,,Szolnok,,7/10/2018,4/23/2018,Web Service,,,,,,,Hungary,Education,,,,grid.445798.3,,"['Szolnok, Tiszaligeti stny. 14, 5000 Hungary', 'Szolnok, Mártírok útja 8, 5000 Hungary']","[{'location': {'lat': 47.1657583, 'lng': 20.1872312}, 'viewport': {'northeast': {'lat': 47.16714692989273, 'lng': 20.18854242989272}, 'southwest': {'lat': 47.16444727010728, 'lng': 20.18584277010727}}}, {'location': {'lat': 47.1706281, 'lng': 20.1881698}, 'viewport': {'northeast': {'lat': 47.17208767989272, 'lng': 20.18941632989272}, 'southwest': {'lat': 47.16938802010728, 'lng': 20.18671667010728}}}]","['Faculty of Management University of Pallas Athena', 'Szolnok College - College AEV']","['ChIJS2hbyEJBQUcRXcBmdSUq5YU', 'ChIJR6gSBWpBQUcRfxcvLzb0X5w']","[['university', 'point_of_interest', 'establishment'], ['university', 'point_of_interest', 'establishment']]","[{'formatted_address': 'Szolnok, Tiszaligeti stny. 14, 5000 Hungary', 'geometry': {'location': {'lat': 47.1657583, 'lng': 20.1872312}, 'viewport': {'northeast': {'lat': 47.16714692989273, 'lng': 20.18854242989272}, 'southwest': {'lat': 47.16444727010728, 'lng': 20.18584277010727}}}, 'name': 'Faculty of Management University of Pallas Athena', 'place_id': 'ChIJS2hbyEJBQUcRXcBmdSUq5YU', 'types': ['university', 'point_of_interest', 'establishment']}, {'formatted_address': 'Szolnok, Mártírok útja 8, 5000 Hungary', 'geometry': {'location': {'lat': 47.1706281, 'lng': 20.1881698}, 'viewport': {'northeast': {'lat': 47.17208767989272, 'lng': 20.18941632989272}, 'southwest': {'lat': 47.16938802010728, 'lng': 20.18671667010728}}}, 'name': 'Szolnok College - College AEV', 'place_id': 'ChIJR6gSBWpBQUcRfxcvLzb0X5w', 'types': ['university', 'point_of_interest', 'establishment']}]",False
26,Regenstrief Institute,,Indianapolis,Indiana,7/10/2018,4/23/2018,Web Service,,,,,,,United States,Not-for-Profit,,,,grid.448342.d,,"1101 W 10th St, Indianapolis, IN 46202, USA","{'location': {'lat': 39.7796852, 'lng': -86.18023149999999}, 'viewport': {'northeast': {'lat': 39.78118622989271, 'lng': -86.17888692010727}, 'southwest': {'lat': 39.77848657010727, 'lng': -86.18158657989272}}}",Regenstrief Institute,ChIJ3cP3-DNXa4gRp0bPl9IZ-jc,"['school', 'point_of_interest', 'establishment']","{'formatted_address': '1101 W 10th St, Indianapolis, IN 46202, USA', 'geometry': {'location': {'lat': 39.7796852, 'lng': -86.18023149999999}, 'viewport': {'northeast': {'lat': 39.78118622989271, 'lng': -86.17888692010727}, 'southwest': {'lat': 39.77848657010727, 'lng': -86.18158657989272}}}, 'name': 'Regenstrief Institute', 'place_id': 'ChIJ3cP3-DNXa4gRp0bPl9IZ-jc', 'types': ['school', 'point_of_interest', 'establishment']}",False
27,Huanghuai University,,Zhumadian,,7/10/2018,4/23/2018,Web Service,,,,,,,China,Education,,,,grid.459575.f,,"Yicheng, Zhumadian, China","{'location': {'lat': 32.984041, 'lng': 114.00808}, 'viewport': {'northeast': {'lat': 32.98529897989271, 'lng': 114.0094390298927}, 'southwest': {'lat': 32.98259932010727, 'lng': 114.0067393701073}}}",Huanghuai University,ChIJKzx-MYJw1DURshwPKeLgNrM,"['university', 'point_of_interest', 'establishment']","{'formatted_address': 'Yicheng, Zhumadian, China', 'geometry': {'location': {'lat': 32.984041, 'lng': 114.00808}, 'viewport': {'northeast': {'lat': 32.98529897989271, 'lng': 114.0094390298927}, 'southwest': {'lat': 32.98259932010727, 'lng': 114.0067393701073}}}, 'name': 'Huanghuai University', 'place_id': 'ChIJKzx-MYJw1DURshwPKeLgNrM', 'types': ['university', 'point_of_interest', 'establishment']}",False
28,Swedish History Museum,,Stockholm,,7/10/2018,4/23/2018,Web Service,,,,,,,Sweden,Archive,,,,grid.451686.8,,"Narvavägen 13-17, 114 84 Stockholm, Sweden","{'location': {'lat': 59.33467899999999, 'lng': 18.0899315}, 'viewport': {'northeast': {'lat': 59.33572212989271, 'lng': 18.09133067989272}, 'southwest': {'lat': 59.33302247010727, 'lng': 18.08863102010728}}}",Swedish History Museum,ChIJ6d_NxlGdX0YR1VYMTmdoPl0,"['museum', 'point_of_interest', 'establishment']","{'formatted_address': 'Narvavägen 13-17, 114 84 Stockholm, Sweden', 'geometry': {'location': {'lat': 59.33467899999999, 'lng': 18.0899315}, 'viewport': {'northeast': {'lat': 59.33572212989271, 'lng': 18.09133067989272}, 'southwest': {'lat': 59.33302247010727, 'lng': 18.08863102010728}}}, 'name': 'Swedish History Museum', 'place_id': 'ChIJ6d_NxlGdX0YR1VYMTmdoPl0', 'types': ['museum', 'point_of_interest', 'establishment']}",False
29,Samara Medical Institute Reaviz,,Samara,,7/10/2018,4/23/2018,Web Service,,,,,,,Russian Federation,Healthcare,,,,grid.445799.2,,"Ulitsa Chapayevskaya, 227, Samara, Samarskaya oblast', Russia, 443001","{'location': {'lat': 53.2014609, 'lng': 50.106268}, 'viewport': {'northeast': {'lat': 53.20293812989272, 'lng': 50.10744912989272}, 'southwest': {'lat': 53.20023847010728, 'lng': 50.10474947010728}}}","Medical University ""Reaviz""",ChIJBR0kCA3HFEERtiAEFeG3ImA,"['university', 'point_of_interest', 'establishment']","{'formatted_address': ""Ulitsa Chapayevskaya, 227, Samara, Samarskaya oblast', Russia, 443001"", 'geometry': {'location': {'lat': 53.2014609, 'lng': 50.106268}, 'viewport': {'northeast': {'lat': 53.20293812989272, 'lng': 50.10744912989272}, 'southwest': {'lat': 53.20023847010728, 'lng': 50.10474947010728}}}, 'name': 'Medical University ""Reaviz""', 'place_id': 'ChIJBR0kCA3HFEERtiAEFeG3ImA', 'types': ['university', 'point_of_interest', 'establishment']}",False
30,Recreation and Conservation Office,,Olympia,Washington,7/10/2018,4/23/2018,Web Service,,,,,,,United States,Government,,,,grid.448343.c,,"1111 Washington St SE, Olympia, WA 98501, USA","{'location': {'lat': 47.03731759999999, 'lng': -122.8976841}, 'viewport': {'northeast': {'lat': 47.03853197989272, 'lng': -122.8967034701073}, 'southwest': {'lat': 47.03583232010727, 'lng': -122.8994031298927}}}",Recreation and Conservation Office,ChIJH60_K_10kVQRDJ4ZLYbJVBs,"['point_of_interest', 'local_government_office', 'establishment']","{'formatted_address': '1111 Washington St SE, Olympia, WA 98501, USA', 'geometry': {'location': {'lat': 47.03731759999999, 'lng': -122.8976841}, 'viewport': {'northeast': {'lat': 47.03853197989272, 'lng': -122.8967034701073}, 'southwest': {'lat': 47.03583232010727, 'lng': -122.8994031298927}}}, 'name': 'Recreation and Conservation Office', 'place_id': 'ChIJH60_K_10kVQRDJ4ZLYbJVBs', 'types': ['point_of_interest', 'local_government_office', 'establishment']}",False
31,Haraldsplass Diakonale Sykehus,,Bergen,,7/10/2018,4/23/2018,Web Service,,,,,,,Norway,Healthcare,,,,grid.459576.c,,"Ulriksdal 8, 5009 Bergen, Norway","{'location': {'lat': 60.3790047, 'lng': 5.3623255}, 'viewport': {'northeast': {'lat': 60.38034182989273, 'lng': 5.363591729892721}, 'southwest': {'lat': 60.37764217010729, 'lng': 5.360892070107277}}}",Haraldsplass Diakonale Sykehus,ChIJNcAvjjT5PEYR5s9AYQbx4Do,"['hospital', 'doctor', 'health', 'point_of_interest', 'establishment']","{'formatted_address': 'Ulriksdal 8, 5009 Bergen, Norway', 'geometry': {'location': {'lat': 60.3790047, 'lng': 5.3623255}, 'viewport': {'northeast': {'lat': 60.38034182989273, 'lng': 5.363591729892721}, 'southwest': {'lat': 60.37764217010729, 'lng': 5.360892070107277}}}, 'name': 'Haraldsplass Diakonale Sykehus', 'place_id': 'ChIJNcAvjjT5PEYR5s9AYQbx4Do', 'types': ['hospital', 'doctor', 'health', 'point_of_interest', 'establishment']}",False
32,Enmesh (Sweden),,Kungälv,,7/10/2018,4/23/2018,Web Service,,,,,,,Sweden,Corporation,,,,grid.451687.9,,"Bultgatan 38, 442 40 Kungälv, Sweden","{'location': {'lat': 57.8807661, 'lng': 11.9486224}, 'viewport': {'northeast': {'lat': 57.88182862989271, 'lng': 11.94951997989272}, 'southwest': {'lat': 57.87912897010727, 'lng': 11.94682032010728}}}",Enmesh AB,ChIJI3kN19xgRUYRk0Dyu0tgWB0,"['point_of_interest', 'establishment']","{'formatted_address': 'Bultgatan 38, 442 40 Kungälv, Sweden', 'geometry': {'location': {'lat': 57.8807661, 'lng': 11.9486224}, 'viewport': {'northeast': {'lat': 57.88182862989271, 'lng': 11.94951997989272}, 'southwest': {'lat': 57.87912897010727, 'lng': 11.94682032010728}}}, 'name': 'Enmesh AB', 'place_id': 'ChIJI3kN19xgRUYRk0Dyu0tgWB0', 'types': ['point_of_interest', 'establishment']}",False
33,Apor Vilmos Katolikus F?iskola,,Vác,,7/10/2018,4/23/2018,Web Service,,,,,,,Hungary,,,,,grid.445802.f,,[],[],[],[],[],[],True
34,Reef Environmental Education Foundation,,Key Largo,Florida,7/10/2018,4/23/2018,Web Service,,,,,,,United States,Not-for-Profit,,,,grid.448344.b,,"98300 Overseas Hwy, Key Largo, FL 33037, USA","{'location': {'lat': 25.0814367, 'lng': -80.4548025}, 'viewport': {'northeast': {'lat': 25.08268437989272, 'lng': -80.45334167010728}, 'southwest': {'lat': 25.07998472010728, 'lng': -80.45604132989271}}}",Reef Environmental Education Foundation,ChIJ9WhYWP1p14gRzXFXbtWbapc,"['point_of_interest', 'establishment']","{'formatted_address': '98300 Overseas Hwy, Key Largo, FL 33037, USA', 'geometry': {'location': {'lat': 25.0814367, 'lng': -80.4548025}, 'viewport': {'northeast': {'lat': 25.08268437989272, 'lng': -80.45334167010728}, 'southwest': {'lat': 25.07998472010728, 'lng': -80.45604132989271}}}, 'name': 'Reef Environmental Education Foundation', 'place_id': 'ChIJ9WhYWP1p14gRzXFXbtWbapc', 'types': ['point_of_interest', 'establishment']}",False
35,Guangdong University of Petrochemical Technology,,Maoming,,7/10/2018,4/23/2018,Web Service,,,,,,,China,Education,,,,grid.459577.d,,"139 Guandu 2nd Rd, Maonan Qu, Maoming Shi, Guangdong Sheng, China","{'location': {'lat': 21.676286, 'lng': 110.923042}, 'viewport': {'northeast': {'lat': 21.67763742989272, 'lng': 110.9243338298927}, 'southwest': {'lat': 21.67493777010728, 'lng': 110.9216341701073}}}",Guangdong University of Petrochemical Technology （West Gate）,ChIJWUX7D8uZrDYRY30PvSTPKjo,"['university', 'point_of_interest', 'establishment']","{'formatted_address': '139 Guandu 2nd Rd, Maonan Qu, Maoming Shi, Guangdong Sheng, China', 'geometry': {'location': {'lat': 21.676286, 'lng': 110.923042}, 'viewport': {'northeast': {'lat': 21.67763742989272, 'lng': 110.9243338298927}, 'southwest': {'lat': 21.67493777010728, 'lng': 110.9216341701073}}}, 'name': 'Guangdong University of Petrochemical Technology （West Gate）', 'place_id': 'ChIJWUX7D8uZrDYRY30PvSTPKjo', 'types': ['university', 'point_of_interest', 'establishment']}",False
36,IntelliWork (Sweden),,Södra Sunderbyn,,7/10/2018,4/23/2018,Web Service,,,,,,,Sweden,Corporation,,,,grid.451688.6,,[],[],[],[],[],[],True
37,Lugansk National Agrarian University,,Luhansk,,7/10/2018,4/23/2018,Web Service,,,,,,,Ukraine,Education,,,,grid.445803.e,,[],[],[],[],[],[],True
38,Association of Environmental and Resource Economists,,Washington D.C.,District of Columbia,7/10/2018,4/23/2018,Web Service,,,,,,,United States,Other,,,,grid.448345.a,,[],[],[],[],[],[],True
39,Harasanshin Hospital,,Fukuoka,,7/10/2018,4/23/2018,Web Service,,,,,,,Japan,Healthcare,,,,grid.459578.2,,"1-8 Taihakumachi, Hakata Ward, Fukuoka, 812-0033, Japan","{'location': {'lat': 33.601808, 'lng': 130.4056733}, 'viewport': {'northeast': {'lat': 33.60307547989272, 'lng': 130.4070490298927}, 'southwest': {'lat': 33.60037582010728, 'lng': 130.4043493701073}}}",Harasanshin Hospital,ChIJUeWE0O6RQTURwqiZ-BzGqYk,"['hospital', 'point_of_interest', 'establishment']","{'formatted_address': '1-8 Taihakumachi, Hakata Ward, Fukuoka, 812-0033, Japan', 'geometry': {'location': {'lat': 33.601808, 'lng': 130.4056733}, 'viewport': {'northeast': {'lat': 33.60307547989272, 'lng': 130.4070490298927}, 'southwest': {'lat': 33.60037582010728, 'lng': 130.4043493701073}}}, 'name': 'Harasanshin Hospital', 'place_id': 'ChIJUeWE0O6RQTURwqiZ-BzGqYk', 'types': ['hospital', 'point_of_interest', 'establishment']}",False
40,Hoa's Tool Shop (Sweden),,Stockholm,,7/10/2018,4/23/2018,Web Service,,,,,,,Sweden,Corporation,,,,grid.451689.7,,"111 23 Stockholm, Sweden","{'location': {'lat': 59.33510630000001, 'lng': 18.0520054}, 'viewport': {'northeast': {'lat': 59.33644827989271, 'lng': 18.05338307989272}, 'southwest': {'lat': 59.33374862010727, 'lng': 18.05068342010728}}}",Hoa s Tool Shop AB,ChIJq6qqBmSdX0YRIPzOTJUdSD0,"['point_of_interest', 'establishment']","{'formatted_address': '111 23 Stockholm, Sweden', 'geometry': {'location': {'lat': 59.33510630000001, 'lng': 18.0520054}, 'viewport': {'northeast': {'lat': 59.33644827989271, 'lng': 18.05338307989272}, 'southwest': {'lat': 59.33374862010727, 'lng': 18.05068342010728}}}, 'name': 'Hoa s Tool Shop AB', 'place_id': 'ChIJq6qqBmSdX0YRIPzOTJUdSD0', 'types': ['point_of_interest', 'establishment']}",False
41,Lugansk State Medical University,,Luhansk,,7/10/2018,4/23/2018,Web Service,,,,,,,Ukraine,Healthcare,,,,grid.445804.9,,"50-richchya Oborony Luhans'ka district, 1г, Luhans'k, Luhans'ka oblast, Ukraine, 91000","{'location': {'lat': 48.5107313, 'lng': 39.3615364}, 'viewport': {'northeast': {'lat': 48.51208112989272, 'lng': 39.36288622989272}, 'southwest': {'lat': 48.50938147010728, 'lng': 39.36018657010728}}}",Luhansʹkyy Derzhavnyy Medychnyy Universytet,ChIJ61FDMbDRH0ERVXZjWAb6T3g,"['university', 'point_of_interest', 'establishment']","{'formatted_address': ""50-richchya Oborony Luhans'ka district, 1г, Luhans'k, Luhans'ka oblast, Ukraine, 91000"", 'geometry': {'location': {'lat': 48.5107313, 'lng': 39.3615364}, 'viewport': {'northeast': {'lat': 48.51208112989272, 'lng': 39.36288622989272}, 'southwest': {'lat': 48.50938147010728, 'lng': 39.36018657010728}}}, 'name': 'Luhansʹkyy Derzhavnyy Medychnyy Universytet', 'place_id': 'ChIJ61FDMbDRH0ERVXZjWAb6T3g', 'types': ['university', 'point_of_interest', 'establishment']}",False
42,Massachusetts Energy and Environmental Affairs,,Boston,Massachusetts,7/10/2018,4/23/2018,Web Service,,,,,,,United States,Government,,,,grid.448346.9,,"Saltonstall Bldg, 100 Cambridge St #900, Boston, MA 02114, USA","{'location': {'lat': 42.360467, 'lng': -71.0620926}, 'viewport': {'northeast': {'lat': 42.36209887989272, 'lng': -71.06059087010728}, 'southwest': {'lat': 42.35939922010728, 'lng': -71.06329052989271}}}",Executive Office of Energy and Environmental Affairs,ChIJPbS_0Zpw44kRY0JIy6nZFv8,"['point_of_interest', 'local_government_office', 'establishment']","{'formatted_address': 'Saltonstall Bldg, 100 Cambridge St #900, Boston, MA 02114, USA', 'geometry': {'location': {'lat': 42.360467, 'lng': -71.0620926}, 'viewport': {'northeast': {'lat': 42.36209887989272, 'lng': -71.06059087010728}, 'southwest': {'lat': 42.35939922010728, 'lng': -71.06329052989271}}}, 'name': 'Executive Office of Energy and Environmental Affairs', 'place_id': 'ChIJPbS_0Zpw44kRY0JIy6nZFv8', 'types': ['point_of_interest', 'local_government_office', 'establishment']}",False
43,Guangdong Province Women and Children Hospital,,Guangzhou,,7/10/2018,4/23/2018,Web Service,,,,,,,China,Healthcare,,,,grid.459579.3,,"['13 Guang Yuan Xi Lu, Yuexiu Qu, Guangzhou Shi, Guangdong Sheng, China', 'Guiping W Rd, Nanhai Qu, Foshan Shi, Guangdong Sheng, China']","[{'location': {'lat': 23.148141, 'lng': 113.248506}, 'viewport': {'northeast': {'lat': 23.14947932989272, 'lng': 113.2500112798927}, 'southwest': {'lat': 23.14677967010728, 'lng': 113.2473116201073}}}, {'location': {'lat': 23.03266, 'lng': 113.158894}, 'viewport': {'northeast': {'lat': 23.03407312989272, 'lng': 113.1602591298927}, 'southwest': {'lat': 23.03137347010728, 'lng': 113.1575594701073}}}]","['Guangdong Women & Children Hospital', 'Guangdong Provincial Foshan Nanhai District Health Care Hospital for Women and Children']","['ChIJU_vOigL5AjQRu7bE3idjN0o', 'ChIJkaduJ49ZAjQRjKpU3elT4vY']","[['hospital', 'point_of_interest', 'establishment'], ['hospital', 'point_of_interest', 'establishment']]","[{'formatted_address': '13 Guang Yuan Xi Lu, Yuexiu Qu, Guangzhou Shi, Guangdong Sheng, China', 'geometry': {'location': {'lat': 23.148141, 'lng': 113.248506}, 'viewport': {'northeast': {'lat': 23.14947932989272, 'lng': 113.2500112798927}, 'southwest': {'lat': 23.14677967010728, 'lng': 113.2473116201073}}}, 'name': 'Guangdong Women & Children Hospital', 'place_id': 'ChIJU_vOigL5AjQRu7bE3idjN0o', 'types': ['hospital', 'point_of_interest', 'establishment']}, {'formatted_address': 'Guiping W Rd, Nanhai Qu, Foshan Shi, Guangdong Sheng, China', 'geometry': {'location': {'lat': 23.03266, 'lng': 113.158894}, 'viewport': {'northeast': {'lat': 23.03407312989272, 'lng': 113.1602591298927}, 'southwest': {'lat': 23.03137347010728, 'lng': 113.1575594701073}}}, 'name': 'Guangdong Provincial Foshan Nanhai District Health Care Hospital for Women and Children', 'place_id': 'ChIJkaduJ49ZAjQRjKpU3elT4vY', 'types': ['hospital', 'point_of_interest', 'establishment']}]",False
44,Envic Sense (Sweden),,Västerås,,7/10/2018,4/23/2018,Web Service,,,,,,,Sweden,Corporation,,,,grid.451690.f,,[],[],[],[],[],[],True
45,Veszprémi Érseki Hittudományi Fõiskola,,Veszprém,,7/10/2018,4/23/2018,Web Service,,,,,,,Hungary,,,,,grid.445805.8,,"Veszprém, Jutasi út 18/2, 8200 Hungary","{'location': {'lat': 47.1092508, 'lng': 17.9099843}, 'viewport': {'northeast': {'lat': 47.11062862989272, 'lng': 17.91141547989272}, 'southwest': {'lat': 47.10792897010727, 'lng': 17.90871582010728}}}",Veszprémi Érseki Hittudományi Főiskola,ChIJ4U4EuGGaaUcRML1iEG5wpnw,"['university', 'point_of_interest', 'establishment']","{'formatted_address': 'Veszprém, Jutasi út 18/2, 8200 Hungary', 'geometry': {'location': {'lat': 47.1092508, 'lng': 17.9099843}, 'viewport': {'northeast': {'lat': 47.11062862989272, 'lng': 17.91141547989272}, 'southwest': {'lat': 47.10792897010727, 'lng': 17.90871582010728}}}, 'name': 'Veszprémi Érseki Hittudományi Főiskola', 'place_id': 'ChIJ4U4EuGGaaUcRML1iEG5wpnw', 'types': ['university', 'point_of_interest', 'establishment']}",False
46,Association of Fish and Wildlife Agencies,,Washington D.C.,District of Columbia,7/10/2018,4/23/2018,Web Service,,,,,,,United States,Other,,,,grid.448347.8,,[],[],[],[],[],[],True
47,Hospital Base Guillermo Almenara Irigoyen,,Lima,,7/10/2018,4/23/2018,Web Service,,,,,,,Peru,Healthcare,,,,grid.459580.5,,"García Naranjo 840 La Victoria, LIMA 13, Peru","{'location': {'lat': -12.0591101, 'lng': -77.0223359}, 'viewport': {'northeast': {'lat': -12.057203, 'lng': -77.0208107}, 'southwest': {'lat': -12.06148259999999, 'lng': -77.0236343}}}",Hospital Guillermo Almenara,ChIJQWuy1rzIBZERnz2uuiGhf2w,"['hospital', 'point_of_interest', 'establishment']","{'formatted_address': 'García Naranjo 840 La Victoria, LIMA 13, Peru', 'geometry': {'location': {'lat': -12.0591101, 'lng': -77.0223359}, 'viewport': {'northeast': {'lat': -12.057203, 'lng': -77.0208107}, 'southwest': {'lat': -12.06148259999999, 'lng': -77.0236343}}}, 'name': 'Hospital Guillermo Almenara', 'place_id': 'ChIJQWuy1rzIBZERnz2uuiGhf2w', 'types': ['hospital', 'point_of_interest', 'establishment']}",False
48,Gipeco (Sweden),,Jönköping,,7/10/2018,4/23/2018,Web Service,,,,,,,Sweden,Corporation,,,,grid.451691.e,,"Kabelvägen 8, 553 02 Jönköping, Sweden","{'location': {'lat': 57.7554226, 'lng': 14.1668322}, 'viewport': {'northeast': {'lat': 57.75625232989271, 'lng': 14.16836247989272}, 'southwest': {'lat': 57.75355267010727, 'lng': 14.16566282010728}}}",Gipeco AB,ChIJkyCaTHFyWkYRA0HCDZKByAg,"['point_of_interest', 'establishment']","{'formatted_address': 'Kabelvägen 8, 553 02 Jönköping, Sweden', 'geometry': {'location': {'lat': 57.7554226, 'lng': 14.1668322}, 'viewport': {'northeast': {'lat': 57.75625232989271, 'lng': 14.16836247989272}, 'southwest': {'lat': 57.75355267010727, 'lng': 14.16566282010728}}}, 'name': 'Gipeco AB', 'place_id': 'ChIJkyCaTHFyWkYRA0HCDZKByAg', 'types': ['point_of_interest', 'establishment']}",False
49,Bifröst University,,Borgarnes,,7/10/2018,4/23/2018,Web Service,,,,,,,Iceland,Education,,,,grid.445806.b,,"Bifröst, 311, Iceland","{'location': {'lat': 64.7667077, 'lng': -21.5518068}, 'viewport': {'northeast': {'lat': 64.76811382989271, 'lng': -21.55008297010728}, 'southwest': {'lat': 64.76541417010728, 'lng': -21.55278262989272}}}",Bifröst University,ChIJuYrLffhL1EgRsNfiCVi_fpQ,"['school', 'point_of_interest', 'establishment']","{'formatted_address': 'Bifröst, 311, Iceland', 'geometry': {'location': {'lat': 64.7667077, 'lng': -21.5518068}, 'viewport': {'northeast': {'lat': 64.76811382989271, 'lng': -21.55008297010728}, 'southwest': {'lat': 64.76541417010728, 'lng': -21.55278262989272}}}, 'name': 'Bifröst University', 'place_id': 'ChIJuYrLffhL1EgRsNfiCVi_fpQ', 'types': ['school', 'point_of_interest', 'establishment']}",False
50,Pennsylvania Fish and Boat Commission,,Harrisburg,Pennsylvania,7/10/2018,4/23/2018,Web Service,,,,,,,United States,Government,,,,grid.448348.7,,"1601 Elmerton Ave, Harrisburg, PA 17110, USA","{'location': {'lat': 40.292358, 'lng': -76.862239}, 'viewport': {'northeast': {'lat': 40.29357647989273, 'lng': -76.86101367010728}, 'southwest': {'lat': 40.29087682010728, 'lng': -76.86371332989273}}}",Pennsylvania Fish & Boat Commission,ChIJweVkwS3HyIkRNgBMTnLkpPw,"['point_of_interest', 'local_government_office', 'establishment']","{'formatted_address': '1601 Elmerton Ave, Harrisburg, PA 17110, USA', 'geometry': {'location': {'lat': 40.292358, 'lng': -76.862239}, 'viewport': {'northeast': {'lat': 40.29357647989273, 'lng': -76.86101367010728}, 'southwest': {'lat': 40.29087682010728, 'lng': -76.86371332989273}}}, 'name': 'Pennsylvania Fish & Boat Commission', 'place_id': 'ChIJweVkwS3HyIkRNgBMTnLkpPw', 'types': ['point_of_interest', 'local_government_office', 'establishment']}",False
51,Hubei Urban Construction Vocational and Technological College,,Wuhan,,7/10/2018,4/23/2018,Web Service,,,,,,,China,Education,,,,grid.459581.4,,"['Jiangxia, Wuhan, Hubei, China', 'Jiangxia, Wuhan, Hubei, China']","[{'location': {'lat': 30.403432, 'lng': 114.434519}, 'viewport': {'northeast': {'lat': 30.40478362989273, 'lng': 114.4358707798927}, 'southwest': {'lat': 30.40208397010728, 'lng': 114.4331711201073}}}, {'location': {'lat': 30.40178999999999, 'lng': 114.436419}, 'viewport': {'northeast': {'lat': 30.40328387989272, 'lng': 114.4377695298927}, 'southwest': {'lat': 30.40058422010728, 'lng': 114.4350698701073}}}]","['Hubei Urban Construction Vocational and Technological College Books Information Building', 'Hubei Urban Construction Vocational and Technological College National Construction Technology Training Base']","['ChIJN7RDGqy-LjQRuHm3mpE8XoM', 'ChIJ4VCuja6-LjQRlx6Oq1CecOk']","[['point_of_interest', 'establishment'], ['point_of_interest', 'establishment']]","[{'formatted_address': 'Jiangxia, Wuhan, Hubei, China', 'geometry': {'location': {'lat': 30.403432, 'lng': 114.434519}, 'viewport': {'northeast': {'lat': 30.40478362989273, 'lng': 114.4358707798927}, 'southwest': {'lat': 30.40208397010728, 'lng': 114.4331711201073}}}, 'name': 'Hubei Urban Construction Vocational and Technological College Books Information Building', 'place_id': 'ChIJN7RDGqy-LjQRuHm3mpE8XoM', 'types': ['point_of_interest', 'establishment']}, {'formatted_address': 'Jiangxia, Wuhan, Hubei, China', 'geometry': {'location': {'lat': 30.40178999999999, 'lng': 114.436419}, 'viewport': {'northeast': {'lat': 30.40328387989272, 'lng': 114.4377695298927}, 'southwest': {'lat': 30.40058422010728, 'lng': 114.4350698701073}}}, 'name': 'Hubei Urban Construction Vocational and Technological College National Construction Technology Training Base', 'place_id': 'ChIJ4VCuja6-LjQRlx6Oq1CecOk', 'types': ['point_of_interest', 'establishment']}]",False
52,Inteno (Sweden),,Stockholm,,7/10/2018,4/23/2018,Web Service,,,,,,,Sweden,Corporation,,,,grid.451692.d,,"Stensätravägen 13, 127 39 Skärholmen, Sweden","{'location': {'lat': 59.2835232, 'lng': 17.9270007}, 'viewport': {'northeast': {'lat': 59.28497582989272, 'lng': 17.92858947989272}, 'southwest': {'lat': 59.28227617010728, 'lng': 17.92588982010728}}}",Inteno Broadband Technology AB,ChIJeXm036R3X0YRSFJ_tRep-lk,"['point_of_interest', 'establishment']","{'formatted_address': 'Stensätravägen 13, 127 39 Skärholmen, Sweden', 'geometry': {'location': {'lat': 59.2835232, 'lng': 17.9270007}, 'viewport': {'northeast': {'lat': 59.28497582989272, 'lng': 17.92858947989272}, 'southwest': {'lat': 59.28227617010728, 'lng': 17.92588982010728}}}, 'name': 'Inteno Broadband Technology AB', 'place_id': 'ChIJeXm036R3X0YRSFJ_tRep-lk', 'types': ['point_of_interest', 'establishment']}",False
53,Chernihiv National Pedagogical University named after Taras Shevchenko,,Chernihiv,,7/10/2018,4/23/2018,Web Service,,,,,,,Ukraine,Education,,,,grid.445807.a,,"[""Shevchenka Street, 95, Chernihiv, Chernihivs'ka oblast, Ukraine, 14000"", ""Het'mana Polubotka St, 70, Chernihiv, Chernihivs'ka oblast, Ukraine, 14000""]","[{'location': {'lat': 51.50507469999999, 'lng': 31.335344}, 'viewport': {'northeast': {'lat': 51.50674307989272, 'lng': 31.33647542989272}, 'southwest': {'lat': 51.50404342010728, 'lng': 31.33377577010728}}}, {'location': {'lat': 51.5004801, 'lng': 31.315184}, 'viewport': {'northeast': {'lat': 51.50192427989272, 'lng': 31.31638157989272}, 'southwest': {'lat': 51.49922462010728, 'lng': 31.31368192010728}}}]","['Chernihiv National University of Technology', 'Natsionalʹnyy Universytet ""Chernihivsʹkyy Kolehium"" Im. T.h. Shevchenka']","['ChIJV0PE8VBI1UYRpJ-bLH7DK2o', 'ChIJhchaJvZI1UYRc_HY99Soliw']","[['university', 'point_of_interest', 'establishment'], ['university', 'point_of_interest', 'establishment']]","[{'formatted_address': ""Shevchenka Street, 95, Chernihiv, Chernihivs'ka oblast, Ukraine, 14000"", 'geometry': {'location': {'lat': 51.50507469999999, 'lng': 31.335344}, 'viewport': {'northeast': {'lat': 51.50674307989272, 'lng': 31.33647542989272}, 'southwest': {'lat': 51.50404342010728, 'lng': 31.33377577010728}}}, 'name': 'Chernihiv National University of Technology', 'place_id': 'ChIJV0PE8VBI1UYRpJ-bLH7DK2o', 'types': ['university', 'point_of_interest', 'establishment']}, {'formatted_address': ""Het'mana Polubotka St, 70, Chernihiv, Chernihivs'ka oblast, Ukraine, 14000"", 'geometry': {'location': {'lat': 51.5004801, 'lng': 31.315184}, 'viewport': {'northeast': {'lat': 51.50192427989272, 'lng': 31.31638157989272}, 'southwest': {'lat': 51.49922462010728, 'lng': 31.31368192010728}}}, 'name': 'Natsionalʹnyy Universytet ""Chernihivsʹkyy Kolehium"" Im. T.h. Shevchenka', 'place_id': 'ChIJhchaJvZI1UYRc_HY99Soliw', 'types': ['university', 'point_of_interest', 'establishment']}]",False
54,Massachusetts Department of Fish & Game,,Boston,Massachusetts,7/10/2018,4/23/2018,Web Service,,,,,,,United States,Government,,,,grid.448349.6,,"251 Causeway St #400, Boston, MA 02114, USA","{'location': {'lat': 42.366444, 'lng': -71.05882799999999}, 'viewport': {'northeast': {'lat': 42.36786637989272, 'lng': -71.05754817010727}, 'southwest': {'lat': 42.36516672010728, 'lng': -71.06024782989272}}}",Massachusetts Fish & Game Department,ChIJ1acIf45w44kRSuRZs1i76QY,"['point_of_interest', 'local_government_office', 'establishment']","{'formatted_address': '251 Causeway St #400, Boston, MA 02114, USA', 'geometry': {'location': {'lat': 42.366444, 'lng': -71.05882799999999}, 'viewport': {'northeast': {'lat': 42.36786637989272, 'lng': -71.05754817010727}, 'southwest': {'lat': 42.36516672010728, 'lng': -71.06024782989272}}}, 'name': 'Massachusetts Fish & Game Department', 'place_id': 'ChIJ1acIf45w44kRSuRZs1i76QY', 'types': ['point_of_interest', 'local_government_office', 'establishment']}",False
55,Ichimaru Pharcos (Japan),,Gifu City,,7/10/2018,4/23/2018,Web Service,,,,,,,Japan,Corporation,,,,grid.459582.7,,[],[],[],[],[],[],True
56,BioEnergy International (Austria),,Grambach,,7/10/2018,4/23/2018,Web Service,,,,,,,Austria,Corporation,,,,grid.451693.c,,"Parkring, 8074 Raaba-Grambach, Austria","{'location': {'lat': 47.0192111, 'lng': 15.4965665}, 'viewport': {'northeast': {'lat': 47.02040037989273, 'lng': 15.49803287989272}, 'southwest': {'lat': 47.01770072010729, 'lng': 15.49533322010728}}}",BDI - BioEnergy International GmbH,ChIJYVNHLMq0b0cRnOdDGFXrnqo,"['point_of_interest', 'establishment']","{'formatted_address': 'Parkring, 8074 Raaba-Grambach, Austria', 'geometry': {'location': {'lat': 47.0192111, 'lng': 15.4965665}, 'viewport': {'northeast': {'lat': 47.02040037989273, 'lng': 15.49803287989272}, 'southwest': {'lat': 47.01770072010729, 'lng': 15.49533322010728}}}, 'name': 'BDI - BioEnergy International GmbH', 'place_id': 'ChIJYVNHLMq0b0cRnOdDGFXrnqo', 'types': ['point_of_interest', 'establishment']}",False
57,Academy of Choral Arts named after V Popov,,Moscow,,7/10/2018,4/23/2018,Web Service,,,,,,,Russian Federation,Other,,,,grid.445808.5,,"Festival'naya Ulitsa, 2, Moskva, Russia, 125195","{'location': {'lat': 55.8563929, 'lng': 37.4835625}, 'viewport': {'northeast': {'lat': 55.85762472989272, 'lng': 37.48486832989273}, 'southwest': {'lat': 55.85492507010728, 'lng': 37.48216867010728}}}",Akademiya Khorovogo Iskusstva Imeni V.s. Popova,ChIJrei0wxw4tUYRnseNLHOaXQM,"['point_of_interest', 'establishment']","{'formatted_address': ""Festival'naya Ulitsa, 2, Moskva, Russia, 125195"", 'geometry': {'location': {'lat': 55.8563929, 'lng': 37.4835625}, 'viewport': {'northeast': {'lat': 55.85762472989272, 'lng': 37.48486832989273}, 'southwest': {'lat': 55.85492507010728, 'lng': 37.48216867010728}}}, 'name': 'Akademiya Khorovogo Iskusstva Imeni V.s. Popova', 'place_id': 'ChIJrei0wxw4tUYRnseNLHOaXQM', 'types': ['point_of_interest', 'establishment']}",False
58,Michigan Department of Environmental Quality,,Lansing,Michigan,7/10/2018,4/23/2018,Web Service,,,,,,,United States,Government,,,,grid.448350.e,,"7953 Adobe Rd, Kalamazoo, MI 49009, USA","{'location': {'lat': 42.3747517, 'lng': -85.660348}, 'viewport': {'northeast': {'lat': 42.37610252989272, 'lng': -85.65895557010728}, 'southwest': {'lat': 42.37340287010727, 'lng': -85.66165522989273}}}",Michigan Department of Environmental Quality,ChIJVeLpxj55F4gRP8IgbG5Nn64,"['point_of_interest', 'establishment']","{'formatted_address': '7953 Adobe Rd, Kalamazoo, MI 49009, USA', 'geometry': {'location': {'lat': 42.3747517, 'lng': -85.660348}, 'viewport': {'northeast': {'lat': 42.37610252989272, 'lng': -85.65895557010728}, 'southwest': {'lat': 42.37340287010727, 'lng': -85.66165522989273}}}, 'name': 'Michigan Department of Environmental Quality', 'place_id': 'ChIJVeLpxj55F4gRP8IgbG5Nn64', 'types': ['point_of_interest', 'establishment']}",False
59,Human Longevity (United States),,San Diego,California,7/10/2018,4/23/2018,Web Service,,,,,,,United States,Corporation,,,,grid.459583.6,,"4570 Executive Dr, San Diego, CA 92121, USA","{'location': {'lat': 32.8778424, 'lng': -117.209039}, 'viewport': {'northeast': {'lat': 32.87919327989272, 'lng': -117.2078376701073}, 'southwest': {'lat': 32.87649362010728, 'lng': -117.2105373298928}}}",Human Longevity Inc.,ChIJpy81Ly4H3IAReQs0XVEt5q8,"['point_of_interest', 'establishment']","{'formatted_address': '4570 Executive Dr, San Diego, CA 92121, USA', 'geometry': {'location': {'lat': 32.8778424, 'lng': -117.209039}, 'viewport': {'northeast': {'lat': 32.87919327989272, 'lng': -117.2078376701073}, 'southwest': {'lat': 32.87649362010728, 'lng': -117.2105373298928}}}, 'name': 'Human Longevity Inc.', 'place_id': 'ChIJpy81Ly4H3IAReQs0XVEt5q8', 'types': ['point_of_interest', 'establishment']}",False
60,Mecdon (Sweden),,Laxå,,7/10/2018,4/23/2018,Web Service,,,,,,,Sweden,Corporation,,,,grid.451694.b,,"Ålandsvägen 4, 695 30 Laxå, Sweden","{'location': {'lat': 58.9913086, 'lng': 14.6159162}, 'viewport': {'northeast': {'lat': 58.99243572989273, 'lng': 14.61742677989272}, 'southwest': {'lat': 58.98973607010728, 'lng': 14.61472712010728}}}",Mecdon i Laxå AB,ChIJS7TNiaKHW0YRWB_tt8qsnWc,"['point_of_interest', 'establishment']","{'formatted_address': 'Ålandsvägen 4, 695 30 Laxå, Sweden', 'geometry': {'location': {'lat': 58.9913086, 'lng': 14.6159162}, 'viewport': {'northeast': {'lat': 58.99243572989273, 'lng': 14.61742677989272}, 'southwest': {'lat': 58.98973607010728, 'lng': 14.61472712010728}}}, 'name': 'Mecdon i Laxå AB', 'place_id': 'ChIJS7TNiaKHW0YRWB_tt8qsnWc', 'types': ['point_of_interest', 'establishment']}",False
61,Luhansk State University of Internal Affairs named after E.O.Didorenko,,Luhansk,,7/10/2018,4/23/2018,Web Service,,,,,,,Ukraine,Education,,,,grid.445809.4,,"Donetska Street, 1, Sieverodonets'k, Luhans'ka oblast, Ukraine, 93400","{'location': {'lat': 48.956034, 'lng': 38.5007796}, 'viewport': {'northeast': {'lat': 48.95728437989271, 'lng': 38.50177992989273}, 'southwest': {'lat': 48.95458472010727, 'lng': 38.49908027010729}}}",Luhansk State University of Internal Affairs,ChIJgwpJAJPbH0ERn5TzwGzccOM,"['police', 'point_of_interest', 'establishment']","{'formatted_address': ""Donetska Street, 1, Sieverodonets'k, Luhans'ka oblast, Ukraine, 93400"", 'geometry': {'location': {'lat': 48.956034, 'lng': 38.5007796}, 'viewport': {'northeast': {'lat': 48.95728437989271, 'lng': 38.50177992989273}, 'southwest': {'lat': 48.95458472010727, 'lng': 38.49908027010729}}}, 'name': 'Luhansk State University of Internal Affairs', 'place_id': 'ChIJgwpJAJPbH0ERn5TzwGzccOM', 'types': ['police', 'point_of_interest', 'establishment']}",False
62,Fishmaster (United States),,Cumming,Georgia,7/10/2018,4/23/2018,Web Service,,,,,,,United States,Corporation,,,,grid.448351.f,,"['8525 US-1, Sebastian, FL 32976, USA', '2640 Byington Solway Rd, Knoxville, TN 37931, USA']","[{'location': {'lat': 27.8733886, 'lng': -80.4973258}, 'viewport': {'northeast': {'lat': 27.87470687989272, 'lng': -80.49605112010728}, 'southwest': {'lat': 27.87200722010728, 'lng': -80.49875077989272}}}, {'location': {'lat': 35.9688629, 'lng': -84.12368359999999}, 'viewport': {'northeast': {'lat': 35.97004412989273, 'lng': -84.12229937010727}, 'southwest': {'lat': 35.96734447010728, 'lng': -84.12499902989272}}}]","['Fish Master', 'Fishmaster']","['ChIJadJVscdr3ogRQjz0D0114nI', 'ChIJyQNGkCOP9YgRRZpP9nrE_Wk']","[['point_of_interest', 'establishment'], ['store', 'point_of_interest', 'establishment']]","[{'formatted_address': '8525 US-1, Sebastian, FL 32976, USA', 'geometry': {'location': {'lat': 27.8733886, 'lng': -80.4973258}, 'viewport': {'northeast': {'lat': 27.87470687989272, 'lng': -80.49605112010728}, 'southwest': {'lat': 27.87200722010728, 'lng': -80.49875077989272}}}, 'name': 'Fish Master', 'place_id': 'ChIJadJVscdr3ogRQjz0D0114nI', 'types': ['point_of_interest', 'establishment']}, {'formatted_address': '2640 Byington Solway Rd, Knoxville, TN 37931, USA', 'geometry': {'location': {'lat': 35.9688629, 'lng': -84.12368359999999}, 'viewport': {'northeast': {'lat': 35.97004412989273, 'lng': -84.12229937010727}, 'southwest': {'lat': 35.96734447010728, 'lng': -84.12499902989272}}}, 'name': 'Fishmaster', 'place_id': 'ChIJyQNGkCOP9YgRRZpP9nrE_Wk', 'types': ['store', 'point_of_interest', 'establishment']}]",False
63,Guangxi Normal University,,Guilin,,7/10/2018,4/23/2018,Web Service,,,,,,,China,Education,,,,grid.459584.1,,"Diecai, Guilin, Guangxi, China","{'location': {'lat': 25.284448, 'lng': 110.299584}, 'viewport': {'northeast': {'lat': 25.28579067989272, 'lng': 110.3009576798927}, 'southwest': {'lat': 25.28309102010728, 'lng': 110.2982580201073}}}",广西师范大学,ChIJK3gBYLn1pDYR6AHmeuZfjUs,"['university', 'point_of_interest', 'establishment']","{'formatted_address': 'Diecai, Guilin, Guangxi, China', 'geometry': {'location': {'lat': 25.284448, 'lng': 110.299584}, 'viewport': {'northeast': {'lat': 25.28579067989272, 'lng': 110.3009576798927}, 'southwest': {'lat': 25.28309102010728, 'lng': 110.2982580201073}}}, 'name': '广西师范大学', 'place_id': 'ChIJK3gBYLn1pDYR6AHmeuZfjUs', 'types': ['university', 'point_of_interest', 'establishment']}",False
64,Hot Disk (Sweden),,Gothenburg,,7/10/2018,4/23/2018,Web Service,,,,,,,Sweden,Corporation,,,,grid.451695.a,,"Sven Hultins gata 9, 412 88 Göteborg, Sweden","{'location': {'lat': 57.6837427, 'lng': 11.9787872}, 'viewport': {'northeast': {'lat': 57.68511762989273, 'lng': 11.98023377989272}, 'southwest': {'lat': 57.68241797010728, 'lng': 11.97753412010728}}}",Hot Disk AB,ChIJF9E4gAnzT0YRtmPz-S-ihpg,"['point_of_interest', 'establishment']","{'formatted_address': 'Sven Hultins gata 9, 412 88 Göteborg, Sweden', 'geometry': {'location': {'lat': 57.6837427, 'lng': 11.9787872}, 'viewport': {'northeast': {'lat': 57.68511762989273, 'lng': 11.98023377989272}, 'southwest': {'lat': 57.68241797010728, 'lng': 11.97753412010728}}}, 'name': 'Hot Disk AB', 'place_id': 'ChIJF9E4gAnzT0YRtmPz-S-ihpg', 'types': ['point_of_interest', 'establishment']}",False
65,Academy of Russian Ballet Vaganova,,Saint Petersburg,,7/10/2018,4/23/2018,Web Service,,,,,,,Russian Federation,,,,,grid.445810.c,,"Ulitsa Zodchego Rossi, 2, Sankt-Peterburg, Russia, 191023","{'location': {'lat': 59.9304629, 'lng': 30.335934}, 'viewport': {'northeast': {'lat': 59.93183067989272, 'lng': 30.33713177989272}, 'southwest': {'lat': 59.92913102010728, 'lng': 30.33443212010728}}}",Akademiya Russkogo Baleta Imeni A. Ya. Vaganovoy,ChIJe4EVJagxlkYRtmN1Tq56YyE,"['point_of_interest', 'establishment']","{'formatted_address': 'Ulitsa Zodchego Rossi, 2, Sankt-Peterburg, Russia, 191023', 'geometry': {'location': {'lat': 59.9304629, 'lng': 30.335934}, 'viewport': {'northeast': {'lat': 59.93183067989272, 'lng': 30.33713177989272}, 'southwest': {'lat': 59.92913102010728, 'lng': 30.33443212010728}}}, 'name': 'Akademiya Russkogo Baleta Imeni A. Ya. Vaganovoy', 'place_id': 'ChIJe4EVJagxlkYRtmN1Tq56YyE', 'types': ['point_of_interest', 'establishment']}",False
66,Michigan Department of Natural Resources,,Lansing,Michigan,7/10/2018,4/23/2018,Web Service,,,,,,,United States,Government,,,,grid.448352.c,,"1732 M-32, Gaylord, MI 49735, USA","{'location': {'lat': 45.028485, 'lng': -84.7091173}, 'viewport': {'northeast': {'lat': 45.02971212989272, 'lng': -84.70776882010728}, 'southwest': {'lat': 45.02701247010727, 'lng': -84.71046847989271}}}",Department of Natural Resources,ChIJS67sbYdFNU0RLSJBJc0ZXCw,"['campground', 'park', 'lodging', 'point_of_interest', 'establishment']","{'formatted_address': '1732 M-32, Gaylord, MI 49735, USA', 'geometry': {'location': {'lat': 45.028485, 'lng': -84.7091173}, 'viewport': {'northeast': {'lat': 45.02971212989272, 'lng': -84.70776882010728}, 'southwest': {'lat': 45.02701247010727, 'lng': -84.71046847989271}}}, 'name': 'Department of Natural Resources', 'place_id': 'ChIJS67sbYdFNU0RLSJBJc0ZXCw', 'types': ['campground', 'park', 'lodging', 'point_of_interest', 'establishment']}",False
67,Icon (United Kingdom),,Marlow,,7/10/2018,4/23/2018,Web Service,,,,,,,United Kingdom,Corporation,,,,grid.459585.0,,"[""Concept House, 6 Stoney Croft Rise, Chandler's Ford, Eastleigh SO53 3LD, UK"", '20 Flaxman Terrace, London WC1H 9AT, UK']","[{'location': {'lat': 50.9648607, 'lng': -1.3888454}, 'viewport': {'northeast': {'lat': 50.96615237989272, 'lng': -1.387279620107278}, 'southwest': {'lat': 50.96345272010728, 'lng': -1.389979279892722}}}, {'location': {'lat': 51.5271601, 'lng': -0.1286259}, 'viewport': {'northeast': {'lat': 51.52849182989272, 'lng': -0.1271981701072778}, 'southwest': {'lat': 51.52579217010727, 'lng': -0.1298978298927222}}}]","['Icon Clinical Research', 'icons.com']","['ChIJ1V7xKnhzdEgR9zuRqemIp_U', 'ChIJZzFcXf4adkgR2x4jg9_DRCs']","[['point_of_interest', 'establishment'], ['store', 'point_of_interest', 'establishment']]","[{'formatted_address': ""Concept House, 6 Stoney Croft Rise, Chandler's Ford, Eastleigh SO53 3LD, UK"", 'geometry': {'location': {'lat': 50.9648607, 'lng': -1.3888454}, 'viewport': {'northeast': {'lat': 50.96615237989272, 'lng': -1.387279620107278}, 'southwest': {'lat': 50.96345272010728, 'lng': -1.389979279892722}}}, 'name': 'Icon Clinical Research', 'place_id': 'ChIJ1V7xKnhzdEgR9zuRqemIp_U', 'types': ['point_of_interest', 'establishment']}, {'formatted_address': '20 Flaxman Terrace, London WC1H 9AT, UK', 'geometry': {'location': {'lat': 51.5271601, 'lng': -0.1286259}, 'viewport': {'northeast': {'lat': 51.52849182989272, 'lng': -0.1271981701072778}, 'southwest': {'lat': 51.52579217010727, 'lng': -0.1298978298927222}}}, 'name': 'icons.com', 'place_id': 'ChIJZzFcXf4adkgR2x4jg9_DRCs', 'types': ['store', 'point_of_interest', 'establishment']}]",False
68,Hotswaps (Sweden),,Jönköping,,7/10/2018,4/23/2018,Web Service,,,,,,,Sweden,Corporation,,,,grid.451696.9,,"['Vasavägen 3c, 554 54 Jönköping, Sweden', 'Knarrarnäsgatan 7, 164 40 Kista, Sweden']","[{'location': {'lat': 57.7846777, 'lng': 14.2318445}, 'viewport': {'northeast': {'lat': 57.78594267989273, 'lng': 14.23261342989272}, 'southwest': {'lat': 57.78324302010728, 'lng': 14.22991377010728}}}, {'location': {'lat': 59.4003378, 'lng': 17.9501581}, 'viewport': {'northeast': {'lat': 59.40178162989271, 'lng': 17.95152227989272}, 'southwest': {'lat': 59.39908197010727, 'lng': 17.94882262010728}}}]","['Hotswap Jönköping AB', 'HotSwap Stockholm AB']","['ChIJpVbsD3RtWkYRsnRzA9lo2h0', 'ChIJ97XD3OadX0YRLTTRBp8mvyo']","[['point_of_interest', 'establishment'], ['point_of_interest', 'establishment']]","[{'formatted_address': 'Vasavägen 3c, 554 54 Jönköping, Sweden', 'geometry': {'location': {'lat': 57.7846777, 'lng': 14.2318445}, 'viewport': {'northeast': {'lat': 57.78594267989273, 'lng': 14.23261342989272}, 'southwest': {'lat': 57.78324302010728, 'lng': 14.22991377010728}}}, 'name': 'Hotswap Jönköping AB', 'place_id': 'ChIJpVbsD3RtWkYRsnRzA9lo2h0', 'types': ['point_of_interest', 'establishment']}, {'formatted_address': 'Knarrarnäsgatan 7, 164 40 Kista, Sweden', 'geometry': {'location': {'lat': 59.4003378, 'lng': 17.9501581}, 'viewport': {'northeast': {'lat': 59.40178162989271, 'lng': 17.95152227989272}, 'southwest': {'lat': 59.39908197010727, 'lng': 17.94882262010728}}}, 'name': 'HotSwap Stockholm AB', 'place_id': 'ChIJ97XD3OadX0YRLTTRBp8mvyo', 'types': ['point_of_interest', 'establishment']}]",False
69,Latvian Christian Academy,,J?rmala,,7/10/2018,4/23/2018,Web Service,,,,,,,Latvia,,,,,grid.445811.d,,"Vienības prospekts 23, Jūrmala, LV-2010, Latvia","{'location': {'lat': 56.98004109999999, 'lng': 23.8592638}, 'viewport': {'northeast': {'lat': 56.98131612989272, 'lng': 23.86028837989272}, 'southwest': {'lat': 56.97861647010728, 'lng': 23.85758872010728}}}",Latvian Christian Academy,ChIJma9CiMXc7kYRRDNohZjP5ks,"['university', 'point_of_interest', 'establishment']","{'formatted_address': 'Vienības prospekts 23, Jūrmala, LV-2010, Latvia', 'geometry': {'location': {'lat': 56.98004109999999, 'lng': 23.8592638}, 'viewport': {'northeast': {'lat': 56.98131612989272, 'lng': 23.86028837989272}, 'southwest': {'lat': 56.97861647010728, 'lng': 23.85758872010728}}}, 'name': 'Latvian Christian Academy', 'place_id': 'ChIJma9CiMXc7kYRRDNohZjP5ks', 'types': ['university', 'point_of_interest', 'establishment']}",False
70,CompX (United States),,Dallas,Texas,7/10/2018,4/23/2018,Web Service,,,,,,,United States,Corporation,,,,grid.448353.d,,"['715 Center St, Grayslake, IL 60030, USA', '26 Old Mill Rd, Greenville, SC 29607, USA']","[{'location': {'lat': 42.34384439999999, 'lng': -88.027427}, 'viewport': {'northeast': {'lat': 42.34534302989271, 'lng': -88.02593442010728}, 'southwest': {'lat': 42.34264337010727, 'lng': -88.02863407989273}}}, {'location': {'lat': 34.7959233, 'lng': -82.3111598}, 'viewport': {'northeast': {'lat': 34.79763017989271, 'lng': -82.30954592010728}, 'southwest': {'lat': 34.79493052010727, 'lng': -82.31224557989273}}}]","['Compx Timberline', 'Compx Security Products']","['ChIJUXY7SIyaD4gRGc3pa6lIgA0', 'ChIJWR4JC_glWIgR6sP6kbVONF8']","[['locksmith', 'point_of_interest', 'establishment'], ['point_of_interest', 'establishment']]","[{'formatted_address': '715 Center St, Grayslake, IL 60030, USA', 'geometry': {'location': {'lat': 42.34384439999999, 'lng': -88.027427}, 'viewport': {'northeast': {'lat': 42.34534302989271, 'lng': -88.02593442010728}, 'southwest': {'lat': 42.34264337010727, 'lng': -88.02863407989273}}}, 'name': 'Compx Timberline', 'place_id': 'ChIJUXY7SIyaD4gRGc3pa6lIgA0', 'types': ['locksmith', 'point_of_interest', 'establishment']}, {'formatted_address': '26 Old Mill Rd, Greenville, SC 29607, USA', 'geometry': {'location': {'lat': 34.7959233, 'lng': -82.3111598}, 'viewport': {'northeast': {'lat': 34.79763017989271, 'lng': -82.30954592010728}, 'southwest': {'lat': 34.79493052010727, 'lng': -82.31224557989273}}}, 'name': 'Compx Security Products', 'place_id': 'ChIJWR4JC_glWIgR6sP6kbVONF8', 'types': ['point_of_interest', 'establishment']}]",False
71,Humanpass (South Korea),,Seoul,,7/10/2018,4/23/2018,Web Service,,,,,,,"Korea, Republic of",Corporation,,,,grid.459586.3,,[],[],[],[],[],[],True
72,HUI Research (Sweden),,Stockholm,,7/10/2018,4/23/2018,Web Service,,,,,,,Sweden,Corporation,,,,grid.451697.8,,"['Kungsgatan 27, 111 56 Stockholm, Sweden', 'Drottninggatan 56, 411 07 Göteborg, Sweden']","[{'location': {'lat': 59.33575019999999, 'lng': 18.0671735}, 'viewport': {'northeast': {'lat': 59.33720022989273, 'lng': 18.06850557989272}, 'southwest': {'lat': 59.33450057010728, 'lng': 18.06580592010728}}}, {'location': {'lat': 57.7066192, 'lng': 11.9713419}, 'viewport': {'northeast': {'lat': 57.70783287989272, 'lng': 11.97277117989272}, 'southwest': {'lat': 57.70513322010727, 'lng': 11.97007152010728}}}]","['Hui Research AB', 'Hui Research AB']","['ChIJLZoCBF2dX0YRXw87MekUi_c', 'ChIJ3xmP72TzT0YRwbzneiepLgY']","[['point_of_interest', 'establishment'], ['point_of_interest', 'establishment']]","[{'formatted_address': 'Kungsgatan 27, 111 56 Stockholm, Sweden', 'geometry': {'location': {'lat': 59.33575019999999, 'lng': 18.0671735}, 'viewport': {'northeast': {'lat': 59.33720022989273, 'lng': 18.06850557989272}, 'southwest': {'lat': 59.33450057010728, 'lng': 18.06580592010728}}}, 'name': 'Hui Research AB', 'place_id': 'ChIJLZoCBF2dX0YRXw87MekUi_c', 'types': ['point_of_interest', 'establishment']}, {'formatted_address': 'Drottninggatan 56, 411 07 Göteborg, Sweden', 'geometry': {'location': {'lat': 57.7066192, 'lng': 11.9713419}, 'viewport': {'northeast': {'lat': 57.70783287989272, 'lng': 11.97277117989272}, 'southwest': {'lat': 57.70513322010727, 'lng': 11.97007152010728}}}, 'name': 'Hui Research AB', 'place_id': 'ChIJ3xmP72TzT0YRwbzneiepLgY', 'types': ['point_of_interest', 'establishment']}]",False
73,University of Luhansk,,Luhansk,,7/10/2018,4/23/2018,Web Service,,,,,,,Ukraine,Education,,,,grid.445812.e,,"50-richchya Oborony Luhans'ka district, 1г, Luhans'k, Luhans'ka oblast, Ukraine, 91000","{'location': {'lat': 48.5107313, 'lng': 39.3615364}, 'viewport': {'northeast': {'lat': 48.51208112989272, 'lng': 39.36288622989272}, 'southwest': {'lat': 48.50938147010728, 'lng': 39.36018657010728}}}",Luhansʹkyy Derzhavnyy Medychnyy Universytet,ChIJ61FDMbDRH0ERVXZjWAb6T3g,"['university', 'point_of_interest', 'establishment']","{'formatted_address': ""50-richchya Oborony Luhans'ka district, 1г, Luhans'k, Luhans'ka oblast, Ukraine, 91000"", 'geometry': {'location': {'lat': 48.5107313, 'lng': 39.3615364}, 'viewport': {'northeast': {'lat': 48.51208112989272, 'lng': 39.36288622989272}, 'southwest': {'lat': 48.50938147010728, 'lng': 39.36018657010728}}}, 'name': 'Luhansʹkyy Derzhavnyy Medychnyy Universytet', 'place_id': 'ChIJ61FDMbDRH0ERVXZjWAb6T3g', 'types': ['university', 'point_of_interest', 'establishment']}",False
74,Atlantic States Marine Fisheries Commission,,Arlington,Virginia,7/10/2018,4/23/2018,Web Service,,,,,,,United States,Other,,,,grid.448354.a,,[],[],[],[],[],[],True
75,Idemitsu Kosan (Japan),,Tokyo,,7/10/2018,4/23/2018,Web Service,,,,,,,Japan,Corporation,,,,grid.459587.2,,"1-chōme-1 Kaichi, Matsumoto-shi, Nagano-ken 390-0876, Japan","{'location': {'lat': 36.240057, 'lng': 137.9685213}, 'viewport': {'northeast': {'lat': 36.24140772989271, 'lng': 137.9699357298927}, 'southwest': {'lat': 36.23870807010727, 'lng': 137.9672360701073}}}",IDEMITSU,ChIJ3eeqUIQOHWARjtBhhhNpsdU,"['point_of_interest', 'establishment']","{'formatted_address': '1-chōme-1 Kaichi, Matsumoto-shi, Nagano-ken 390-0876, Japan', 'geometry': {'location': {'lat': 36.240057, 'lng': 137.9685213}, 'viewport': {'northeast': {'lat': 36.24140772989271, 'lng': 137.9699357298927}, 'southwest': {'lat': 36.23870807010727, 'lng': 137.9672360701073}}}, 'name': 'IDEMITSU', 'place_id': 'ChIJ3eeqUIQOHWARjtBhhhNpsdU', 'types': ['point_of_interest', 'establishment']}",False
76,Region Jönköpings län,,Jönköping,,7/10/2018,4/23/2018,Web Service,,,,,,,Sweden,Government,,,,grid.451698.7,,"Jonkoping County, Sweden","{'location': {'lat': 57.3708434, 'lng': 14.3439174}, 'viewport': {'northeast': {'lat': 58.153372, 'lng': 15.6562501}, 'southwest': {'lat': 56.885171, 'lng': 13.0688451}}}",Jonkoping County,ChIJ3wdvqJ6nUEYRMIsOKXiQAQM,"['administrative_area_level_1', 'political']","{'formatted_address': 'Jonkoping County, Sweden', 'geometry': {'location': {'lat': 57.3708434, 'lng': 14.3439174}, 'viewport': {'northeast': {'lat': 58.153372, 'lng': 15.6562501}, 'southwest': {'lat': 56.885171, 'lng': 13.0688451}}}, 'name': 'Jonkoping County', 'place_id': 'ChIJ3wdvqJ6nUEYRMIsOKXiQAQM', 'types': ['administrative_area_level_1', 'political']}",False
77,University of Liep?ja,,Liep?ja,,7/10/2018,4/23/2018,Web Service,,,,,,,Latvia,Education,,,,grid.445813.f,,"Lielā iela 14, Liepāja, LV-3401, Latvia","{'location': {'lat': 56.5087919, 'lng': 21.0104024}, 'viewport': {'northeast': {'lat': 56.51001797989272, 'lng': 21.01221392989272}, 'southwest': {'lat': 56.50731832010727, 'lng': 21.00951427010728}}}",Liepāja University,ChIJG-iTyhCm-kYRvmO6uDKs_6s,"['university', 'point_of_interest', 'establishment']","{'formatted_address': 'Lielā iela 14, Liepāja, LV-3401, Latvia', 'geometry': {'location': {'lat': 56.5087919, 'lng': 21.0104024}, 'viewport': {'northeast': {'lat': 56.51001797989272, 'lng': 21.01221392989272}, 'southwest': {'lat': 56.50731832010727, 'lng': 21.00951427010728}}}, 'name': 'Liepāja University', 'place_id': 'ChIJG-iTyhCm-kYRvmO6uDKs_6s', 'types': ['university', 'point_of_interest', 'establishment']}",False
78,South Baylo University,,Anaheim,California,7/10/2018,4/23/2018,Web Service,,,,,,,United States,Education,,,,grid.441533.4,,"1126 N Brookhurst St, Anaheim, CA 92801, USA","{'location': {'lat': 33.8482669, 'lng': -117.9587593}, 'viewport': {'northeast': {'lat': 33.84961672989272, 'lng': -117.9574549701073}, 'southwest': {'lat': 33.84691707010727, 'lng': -117.9601546298927}}}",South Baylo University,ChIJD4loiYgp3YARv2iCHFBZO3s,"['university', 'point_of_interest', 'establishment']","{'formatted_address': '1126 N Brookhurst St, Anaheim, CA 92801, USA', 'geometry': {'location': {'lat': 33.8482669, 'lng': -117.9587593}, 'viewport': {'northeast': {'lat': 33.84961672989272, 'lng': -117.9574549701073}, 'southwest': {'lat': 33.84691707010727, 'lng': -117.9601546298927}}}, 'name': 'South Baylo University', 'place_id': 'ChIJD4loiYgp3YARv2iCHFBZO3s', 'types': ['university', 'point_of_interest', 'establishment']}",False
79,Ospedale di Civita Castellana,,Civita Castellana,,7/10/2018,4/23/2018,Web Service,,,,,,,Italy,Healthcare,,,,grid.459588.d,,"Via Ferretti, 169, 01033 Civita Castellana VT, Italy","{'location': {'lat': 42.2901248, 'lng': 12.4199582}, 'viewport': {'northeast': {'lat': 42.29126607989272, 'lng': 12.42078557989272}, 'southwest': {'lat': 42.28856642010728, 'lng': 12.41808592010728}}}",Civita Castellana Hospital,ChIJz8v0r5Y9LxMR3tIq3taSGxU,"['hospital', 'point_of_interest', 'establishment']","{'formatted_address': 'Via Ferretti, 169, 01033 Civita Castellana VT, Italy', 'geometry': {'location': {'lat': 42.2901248, 'lng': 12.4199582}, 'viewport': {'northeast': {'lat': 42.29126607989272, 'lng': 12.42078557989272}, 'southwest': {'lat': 42.28856642010728, 'lng': 12.41808592010728}}}, 'name': 'Civita Castellana Hospital', 'place_id': 'ChIJz8v0r5Y9LxMR3tIq3taSGxU', 'types': ['hospital', 'point_of_interest', 'establishment']}",False
80,St. Margaret Mary School,,Chicago,Illinois,7/10/2018,4/23/2018,Web Service,,,,,,,United States,Education,,,,grid.430353.2,,[],[],[],[],[],[],True
81,Academy of Socio-Economic Development,,Moscow,,7/10/2018,4/23/2018,Web Service,,,,,,,Russian Federation,,,,,grid.445814.8,,[],[],[],[],[],[],True
82,Universidad Alfred Nobel de Mexico,,San Juan del Río,,7/10/2018,4/23/2018,Web Service,,,,,,,Mexico,Education,,,,grid.441534.3,,"Maravillas 16, Nuevo Espiritu Santo, 76803 San Juan del Río, Qro., Mexico","{'location': {'lat': 20.4023416, 'lng': -100.0135782}, 'viewport': {'northeast': {'lat': 20.40381627989272, 'lng': -100.0120521701073}, 'southwest': {'lat': 20.40111662010728, 'lng': -100.0147518298927}}}",Alfred Nobel University of Mexico,ChIJy_6LqIQM04URbfLcEr82hPI,"['university', 'school', 'point_of_interest', 'establishment']","{'formatted_address': 'Maravillas 16, Nuevo Espiritu Santo, 76803 San Juan del Río, Qro., Mexico', 'geometry': {'location': {'lat': 20.4023416, 'lng': -100.0135782}, 'viewport': {'northeast': {'lat': 20.40381627989272, 'lng': -100.0120521701073}, 'southwest': {'lat': 20.40111662010728, 'lng': -100.0147518298927}}}, 'name': 'Alfred Nobel University of Mexico', 'place_id': 'ChIJy_6LqIQM04URbfLcEr82hPI', 'types': ['university', 'school', 'point_of_interest', 'establishment']}",False
83,Humanwell Healthcare Group (China),,Wuhan,,7/10/2018,4/23/2018,Web Service,,,,,,,China,Corporation,,,,grid.459589.c,,[],[],[],[],[],[],True
84,SHIELDS for Families,,Los Angeles,California,7/10/2018,4/23/2018,Web Service,,,,,,,United States,,,,,grid.430354.5,,"11601 S Western Ave, Los Angeles, CA 90047, USA","{'location': {'lat': 33.9283775, 'lng': -118.310006}, 'viewport': {'northeast': {'lat': 33.92976197989272, 'lng': -118.3085956201073}, 'southwest': {'lat': 33.92706232010728, 'lng': -118.3112952798927}}}","Shields for Families, Inc.",ChIJJfarY_21woARtnv-A_Jsu0w,"['health', 'point_of_interest', 'establishment']","{'formatted_address': '11601 S Western Ave, Los Angeles, CA 90047, USA', 'geometry': {'location': {'lat': 33.9283775, 'lng': -118.310006}, 'viewport': {'northeast': {'lat': 33.92976197989272, 'lng': -118.3085956201073}, 'southwest': {'lat': 33.92706232010728, 'lng': -118.3112952798927}}}, 'name': 'Shields for Families, Inc.', 'place_id': 'ChIJJfarY_21woARtnv-A_Jsu0w', 'types': ['health', 'point_of_interest', 'establishment']}",False
85,Baltic State Technical University Voenmeh,,Saint Petersburg,,7/10/2018,4/23/2018,Web Service,,,,,,,Russian Federation,Education,,,,grid.445815.9,,"1-Ya Krasnoarmeyskaya Ulitsa, 1, Sankt-Peterburg, Russia, 190005","{'location': {'lat': 59.9163641, 'lng': 30.3172284}, 'viewport': {'northeast': {'lat': 59.91760432989272, 'lng': 30.31858647989272}, 'southwest': {'lat': 59.91490467010728, 'lng': 30.31588682010728}}}",Baltic State Technical University,ChIJnQR4A_kwlkYRHFlc-L-OC9k,"['university', 'point_of_interest', 'establishment']","{'formatted_address': '1-Ya Krasnoarmeyskaya Ulitsa, 1, Sankt-Peterburg, Russia, 190005', 'geometry': {'location': {'lat': 59.9163641, 'lng': 30.3172284}, 'viewport': {'northeast': {'lat': 59.91760432989272, 'lng': 30.31858647989272}, 'southwest': {'lat': 59.91490467010728, 'lng': 30.31588682010728}}}, 'name': 'Baltic State Technical University', 'place_id': 'ChIJnQR4A_kwlkYRHFlc-L-OC9k', 'types': ['university', 'point_of_interest', 'establishment']}",False
86,SUNY Polytechnic Institute,,Utica,New York,7/10/2018,4/23/2018,Web Service,,,,,,,United States,Education,,,,grid.441535.2,,[],[],[],[],[],[],True
87,Hospital de Manises,,Valencia,,7/10/2018,4/23/2018,Web Service,,,,,,,Spain,Healthcare,,,,grid.459590.4,,"Av. de la Generalitat Valenciana, 50, 46940 Manises, Valencia, Spain","{'location': {'lat': 39.4858463, 'lng': -0.4526537}, 'viewport': {'northeast': {'lat': 39.48719997989272, 'lng': -0.4511534701072778}, 'southwest': {'lat': 39.48450032010728, 'lng': -0.4538531298927223}}}",Hospital de Manises,ChIJk4m0B6ZaYA0RhzElPPSyiOI,"['hospital', 'point_of_interest', 'establishment']","{'formatted_address': 'Av. de la Generalitat Valenciana, 50, 46940 Manises, Valencia, Spain', 'geometry': {'location': {'lat': 39.4858463, 'lng': -0.4526537}, 'viewport': {'northeast': {'lat': 39.48719997989272, 'lng': -0.4511534701072778}, 'southwest': {'lat': 39.48450032010728, 'lng': -0.4538531298927223}}}, 'name': 'Hospital de Manises', 'place_id': 'ChIJk4m0B6ZaYA0RhzElPPSyiOI', 'types': ['hospital', 'point_of_interest', 'establishment']}",False
88,Smithsonian Tropical Research Institute,,Washington D.C.,District of Columbia,7/10/2018,4/23/2018,Web Service,,,,,,,United States,Facility,,,,grid.430355.4,,[],[],[],[],[],[],True
89,Volodymyr Dahl East Ukrainian National University,,Luhansk,,7/10/2018,4/23/2018,Web Service,,,,,,,Ukraine,Education,,,,grid.445816.a,,"Central Avenue, 59-a, Sieverodonets'k, Luhans'ka oblast, Ukraine, 93400","{'location': {'lat': 48.9402493, 'lng': 38.4992803}, 'viewport': {'northeast': {'lat': 48.94157262989272, 'lng': 38.50052812989273}, 'southwest': {'lat': 48.93887297010728, 'lng': 38.49782847010728}}}",Skhidnoukrayinsʹkyy Natsionalʹnyy Universytet Imeni Volodymyra Dalya,ChIJAQAAAJXPH0ERqu0tRiF_IXc,"['university', 'point_of_interest', 'establishment']","{'formatted_address': ""Central Avenue, 59-a, Sieverodonets'k, Luhans'ka oblast, Ukraine, 93400"", 'geometry': {'location': {'lat': 48.9402493, 'lng': 38.4992803}, 'viewport': {'northeast': {'lat': 48.94157262989272, 'lng': 38.50052812989273}, 'southwest': {'lat': 48.93887297010728, 'lng': 38.49782847010728}}}, 'name': 'Skhidnoukrayinsʹkyy Natsionalʹnyy Universytet Imeni Volodymyra Dalya', 'place_id': 'ChIJAQAAAJXPH0ERqu0tRiF_IXc', 'types': ['university', 'point_of_interest', 'establishment']}",False
90,Universidad Abierta,,San Luis Potosí City,,7/10/2018,4/23/2018,Web Service,,,,,,,Mexico,Education,,,,grid.441537.0,,"Jiménez 315, Azteca Nte., 78000 San Luis, S.L.P., Mexico","{'location': {'lat': 22.1535388, 'lng': -100.9704786}, 'viewport': {'northeast': {'lat': 22.15479727989272, 'lng': -100.9691137701073}, 'southwest': {'lat': 22.15209762010728, 'lng': -100.9718134298927}}}",Universidad Abierta S.C.,ChIJl85nMbapgIYROTrcdwq5fFM,"['university', 'point_of_interest', 'establishment']","{'formatted_address': 'Jiménez 315, Azteca Nte., 78000 San Luis, S.L.P., Mexico', 'geometry': {'location': {'lat': 22.1535388, 'lng': -100.9704786}, 'viewport': {'northeast': {'lat': 22.15479727989272, 'lng': -100.9691137701073}, 'southwest': {'lat': 22.15209762010728, 'lng': -100.9718134298927}}}, 'name': 'Universidad Abierta S.C.', 'place_id': 'ChIJl85nMbapgIYROTrcdwq5fFM', 'types': ['university', 'point_of_interest', 'establishment']}",False
91,Heart Life Hospital,,Okinawa,,7/10/2018,4/23/2018,Web Service,,,,,,,Japan,Healthcare,,,,grid.459591.5,,[],[],[],[],[],[],True
92,Raising Voices,,Kampala,,7/10/2018,4/23/2018,Web Service,,,,,,,Uganda,,,,,grid.430356.7,,"Plot 16, P.O Box 6770 Tufnell Dr, Kampala, Uganda","{'location': {'lat': 0.338701, 'lng': 32.583625}, 'viewport': {'northeast': {'lat': 0.3400871798927222, 'lng': 32.58494917989271}, 'southwest': {'lat': 0.3373875201072778, 'lng': 32.58224952010727}}}",Raising Voices,ChIJiSe2lKe7fRcRZel5p9qAxT4,"['point_of_interest', 'establishment']","{'formatted_address': 'Plot 16, P.O Box 6770 Tufnell Dr, Kampala, Uganda', 'geometry': {'location': {'lat': 0.338701, 'lng': 32.583625}, 'viewport': {'northeast': {'lat': 0.3400871798927222, 'lng': 32.58494917989271}, 'southwest': {'lat': 0.3373875201072778, 'lng': 32.58224952010727}}}, 'name': 'Raising Voices', 'place_id': 'ChIJiSe2lKe7fRcRZel5p9qAxT4', 'types': ['point_of_interest', 'establishment']}",False
93,Academy of Innovation Management,,Moscow,,7/10/2018,4/23/2018,Web Service,,,,,,,Russian Federation,,,,,grid.445817.b,,[],[],[],[],[],[],True
94,Universidad de Estudios Profesionales de Ciencias y Artes,,León,,7/10/2018,4/23/2018,Web Service,,,,,,,Mexico,Education,,,,grid.441538.f,,"Agustín Melgar 102, Heroes de Chapultepec, 37160 León, Gto., Mexico","{'location': {'lat': 21.1408237, 'lng': -101.6773387}, 'viewport': {'northeast': {'lat': 21.14213102989272, 'lng': -101.6760046201073}, 'southwest': {'lat': 21.13943137010728, 'lng': -101.6787042798927}}}",Universidad E.s.c.a.,ChIJfTdp9j2_K4QRiAEnnYCBa6I,"['university', 'point_of_interest', 'establishment']","{'formatted_address': 'Agustín Melgar 102, Heroes de Chapultepec, 37160 León, Gto., Mexico', 'geometry': {'location': {'lat': 21.1408237, 'lng': -101.6773387}, 'viewport': {'northeast': {'lat': 21.14213102989272, 'lng': -101.6760046201073}, 'southwest': {'lat': 21.13943137010728, 'lng': -101.6787042798927}}}, 'name': 'Universidad E.s.c.a.', 'place_id': 'ChIJfTdp9j2_K4QRiAEnnYCBa6I', 'types': ['university', 'point_of_interest', 'establishment']}",False
95,Indian Institute of Technology Patna,,Patna,,7/10/2018,4/23/2018,Web Service,,,,,,,India,Education,,,,grid.459592.6,,"Bihta, Bihar 801103, India","{'location': {'lat': 25.5356742, 'lng': 84.85117989999999}, 'viewport': {'northeast': {'lat': 25.53701002989272, 'lng': 84.85260062989272}, 'southwest': {'lat': 25.53431037010728, 'lng': 84.84990097010727}}}",Indian Institute of Technology Patna,ChIJq6RUaX9X7TkRKqAq_Lnx6Gw,"['university', 'point_of_interest', 'establishment']","{'formatted_address': 'Bihta, Bihar 801103, India', 'geometry': {'location': {'lat': 25.5356742, 'lng': 84.85117989999999}, 'viewport': {'northeast': {'lat': 25.53701002989272, 'lng': 84.85260062989272}, 'southwest': {'lat': 25.53431037010728, 'lng': 84.84990097010727}}}, 'name': 'Indian Institute of Technology Patna', 'place_id': 'ChIJq6RUaX9X7TkRKqAq_Lnx6Gw', 'types': ['university', 'point_of_interest', 'establishment']}",False
96,Rajarata University of Sri Lanka,,Anuradhapura,,7/10/2018,4/23/2018,Web Service,,,,,,,Sri Lanka,Education,,,,grid.430357.6,,"Mihintale, Sri Lanka","{'location': {'lat': 8.3609069, 'lng': 80.5033912}, 'viewport': {'northeast': {'lat': 8.36225637989272, 'lng': 80.50490692989271}, 'southwest': {'lat': 8.359556720107276, 'lng': 80.50220727010728}}}",Rajarata University of Sri Lanka,ChIJyzkCN2OK_DoR09Swl7oI5P0,"['university', 'point_of_interest', 'establishment']","{'formatted_address': 'Mihintale, Sri Lanka', 'geometry': {'location': {'lat': 8.3609069, 'lng': 80.5033912}, 'viewport': {'northeast': {'lat': 8.36225637989272, 'lng': 80.50490692989271}, 'southwest': {'lat': 8.359556720107276, 'lng': 80.50220727010728}}}, 'name': 'Rajarata University of Sri Lanka', 'place_id': 'ChIJyzkCN2OK_DoR09Swl7oI5P0', 'types': ['university', 'point_of_interest', 'establishment']}",False
97,Academy of the Federal Security Services of the Russian Federation,,Moscow,,7/10/2018,4/23/2018,Web Service,,,,,,,Russian Federation,,,,,grid.445818.4,,"Michurinskiy Prospekt, 70, Moskva, Russia, 119602","{'location': {'lat': 55.6832065, 'lng': 37.4701097}, 'viewport': {'northeast': {'lat': 55.68441847989272, 'lng': 37.47170072989272}, 'southwest': {'lat': 55.68171882010727, 'lng': 37.46900107010728}}}",FSB Academy,ChIJbTa7XLZNtUYRsAiwjke2I40,"['university', 'point_of_interest', 'establishment']","{'formatted_address': 'Michurinskiy Prospekt, 70, Moskva, Russia, 119602', 'geometry': {'location': {'lat': 55.6832065, 'lng': 37.4701097}, 'viewport': {'northeast': {'lat': 55.68441847989272, 'lng': 37.47170072989272}, 'southwest': {'lat': 55.68171882010727, 'lng': 37.46900107010728}}}, 'name': 'FSB Academy', 'place_id': 'ChIJbTa7XLZNtUYRsAiwjke2I40', 'types': ['university', 'point_of_interest', 'establishment']}",False
98,Université Roi Henri Christophe,,Cap-Haïtien,,7/10/2018,4/23/2018,Web Service,,,,,,,Haiti,Education,,,,grid.441539.e,,"RN6, Haiti","{'location': {'lat': 19.6560394, 'lng': -72.06831559999999}, 'viewport': {'northeast': {'lat': 19.65743112989272, 'lng': -72.06694842010727}, 'southwest': {'lat': 19.65473147010728, 'lng': -72.06964807989272}}}","Université d'État d'Haïti, Campus Henri Christophe de Limonade",ChIJ8_IU7ozOto4RdBsuxYYSPjk,"['university', 'point_of_interest', 'establishment']","{'formatted_address': 'RN6, Haiti', 'geometry': {'location': {'lat': 19.6560394, 'lng': -72.06831559999999}, 'viewport': {'northeast': {'lat': 19.65743112989272, 'lng': -72.06694842010727}, 'southwest': {'lat': 19.65473147010728, 'lng': -72.06964807989272}}}, 'name': ""Université d'État d'Haïti, Campus Henri Christophe de Limonade"", 'place_id': 'ChIJ8_IU7ozOto4RdBsuxYYSPjk', 'types': ['university', 'point_of_interest', 'establishment']}",False
99,Guigang City People's Hospital,,Guigang,,7/10/2018,4/23/2018,Web Service,,,,,,,China,Healthcare,,,,grid.459593.7,,"1 Zhong Shan Zhong Lu, Gangbei Qu, Guigang Shi, Guangxi Zhuangzuzizhiqu, China","{'location': {'lat': 23.087719, 'lng': 109.600157}, 'viewport': {'northeast': {'lat': 23.08918652989272, 'lng': 109.6016146798927}, 'southwest': {'lat': 23.08648687010727, 'lng': 109.5989150201073}}}",Guigang People's Hospital,ChIJGew1xjsdrjYRdhTvdibLU7k,"['hospital', 'point_of_interest', 'establishment']","{'formatted_address': '1 Zhong Shan Zhong Lu, Gangbei Qu, Guigang Shi, Guangxi Zhuangzuzizhiqu, China', 'geometry': {'location': {'lat': 23.087719, 'lng': 109.600157}, 'viewport': {'northeast': {'lat': 23.08918652989272, 'lng': 109.6016146798927}, 'southwest': {'lat': 23.08648687010727, 'lng': 109.5989150201073}}}, 'name': ""Guigang People's Hospital"", 'place_id': 'ChIJGew1xjsdrjYRdhTvdibLU7k', 'types': ['hospital', 'point_of_interest', 'establishment']}",False
100,Shire (United Kingdom),,Basingstoke,,7/10/2018,4/23/2018,Web Service,,,,,,,United Kingdom,Corporation,,,,grid.430358.9,,"15 Southern Ave, Leominster HR6 0QF, UK","{'location': {'lat': 52.2191469, 'lng': -2.7327954}, 'viewport': {'northeast': {'lat': 52.22026477989272, 'lng': -2.731285570107278}, 'southwest': {'lat': 52.21756512010728, 'lng': -2.733985229892722}}}",Shires Equestrian,ChIJdwy9zBBHcEgRvmSlyBnXYzM,"['store', 'point_of_interest', 'establishment']","{'formatted_address': '15 Southern Ave, Leominster HR6 0QF, UK', 'geometry': {'location': {'lat': 52.2191469, 'lng': -2.7327954}, 'viewport': {'northeast': {'lat': 52.22026477989272, 'lng': -2.731285570107278}, 'southwest': {'lat': 52.21756512010728, 'lng': -2.733985229892722}}}, 'name': 'Shires Equestrian', 'place_id': 'ChIJdwy9zBBHcEgRvmSlyBnXYzM', 'types': ['store', 'point_of_interest', 'establishment']}",False
101,Constantin Brâncu?i University of Targu Jiu,,Târgu Jiu,,7/10/2018,4/23/2018,Web Service,,,,,,,Romania,Education,,,,grid.445819.5,,"Strada Victoriei, Târgu Jiu 210007, Romania","{'location': {'lat': 45.0385251, 'lng': 23.2750353}, 'viewport': {'northeast': {'lat': 45.03986647989272, 'lng': 23.27640537989272}, 'southwest': {'lat': 45.03716682010728, 'lng': 23.27370572010728}}}",University Constantin Brâncuşi,ChIJN-oJbWeKTUcRSJZW2OU-Fo0,"['university', 'point_of_interest', 'establishment']","{'formatted_address': 'Strada Victoriei, Târgu Jiu 210007, Romania', 'geometry': {'location': {'lat': 45.0385251, 'lng': 23.2750353}, 'viewport': {'northeast': {'lat': 45.03986647989272, 'lng': 23.27640537989272}, 'southwest': {'lat': 45.03716682010728, 'lng': 23.27370572010728}}}, 'name': 'University Constantin Brâncuşi', 'place_id': 'ChIJN-oJbWeKTUcRSJZW2OU-Fo0', 'types': ['university', 'point_of_interest', 'establishment']}",False
102,Ohio Valley University,,Vienna,West Virginia,7/10/2018,4/23/2018,Web Service,,,,,,,United States,Education,,,,grid.441540.0,,"1 Campus View Dr, Vienna, WV 26105, USA","{'location': {'lat': 39.3124569, 'lng': -81.5377271}, 'viewport': {'northeast': {'lat': 39.31391622989272, 'lng': -81.53634632010728}, 'southwest': {'lat': 39.31121657010728, 'lng': -81.53904597989272}}}",Ohio Valley University,ChIJZfGyG99KSIgR2aGizKqhvlg,"['university', 'point_of_interest', 'establishment']","{'formatted_address': '1 Campus View Dr, Vienna, WV 26105, USA', 'geometry': {'location': {'lat': 39.3124569, 'lng': -81.5377271}, 'viewport': {'northeast': {'lat': 39.31391622989272, 'lng': -81.53634632010728}, 'southwest': {'lat': 39.31121657010728, 'lng': -81.53904597989272}}}, 'name': 'Ohio Valley University', 'place_id': 'ChIJZfGyG99KSIgR2aGizKqhvlg', 'types': ['university', 'point_of_interest', 'establishment']}",False
103,Hospital de Viladecans,,Barcelona,,7/10/2018,4/23/2018,Web Service,,,,,,,Spain,Healthcare,,,,grid.459594.0,,"Av. de Gavà, 38, 08840 Viladecans, Barcelona, Spain","{'location': {'lat': 41.3125293, 'lng': 2.0141422}, 'viewport': {'northeast': {'lat': 41.31395697989272, 'lng': 2.01580175}, 'southwest': {'lat': 41.31125732010727, 'lng': 2.012719549999999}}}",Hospital de Viladecans,ChIJl8iHM-ScpBIRiQ5o9csfqBo,"['hospital', 'point_of_interest', 'establishment']","{'formatted_address': 'Av. de Gavà, 38, 08840 Viladecans, Barcelona, Spain', 'geometry': {'location': {'lat': 41.3125293, 'lng': 2.0141422}, 'viewport': {'northeast': {'lat': 41.31395697989272, 'lng': 2.01580175}, 'southwest': {'lat': 41.31125732010727, 'lng': 2.012719549999999}}}, 'name': 'Hospital de Viladecans', 'place_id': 'ChIJl8iHM-ScpBIRiQ5o9csfqBo', 'types': ['hospital', 'point_of_interest', 'establishment']}",False
104,Rubin Museum of Art,,New York,New York,7/10/2018,4/23/2018,Web Service,,,,,,,United States,Archive,,,,grid.430359.8,,"150 W 17th St, New York, NY 10011, USA","{'location': {'lat': 40.7400671, 'lng': -73.9977244}, 'viewport': {'northeast': {'lat': 40.74148587989271, 'lng': -73.99632397010727}, 'southwest': {'lat': 40.73878622010727, 'lng': -73.99902362989272}}}",Rubin Museum of Art,ChIJD4QSVbxZwokRaFPDajZtIaI,"['museum', 'point_of_interest', 'establishment']","{'formatted_address': '150 W 17th St, New York, NY 10011, USA', 'geometry': {'location': {'lat': 40.7400671, 'lng': -73.9977244}, 'viewport': {'northeast': {'lat': 40.74148587989271, 'lng': -73.99632397010727}, 'southwest': {'lat': 40.73878622010727, 'lng': -73.99902362989272}}}, 'name': 'Rubin Museum of Art', 'place_id': 'ChIJD4QSVbxZwokRaFPDajZtIaI', 'types': ['museum', 'point_of_interest', 'establishment']}",False
105,"Baltic Institute of Ecology, Politics and Law",,Saint Petersburg,,7/10/2018,4/23/2018,Web Service,,,,,,,Russian Federation,Education,,,,grid.445820.f,,"18-я линия В.О., 3, Sankt-Peterburg, Leningradskaya oblast', Russia, 199034","{'location': {'lat': 59.9325035, 'lng': 30.2709947}, 'viewport': {'northeast': {'lat': 59.93381502989272, 'lng': 30.27221452989272}, 'southwest': {'lat': 59.93111537010728, 'lng': 30.26951487010728}}}","The Baltic Institute of Ecology, Politics and Law",ChIJaeHbchIxlkYRZqVtxn0sfGQ,"['university', 'point_of_interest', 'establishment']","{'formatted_address': ""18-я линия В.О., 3, Sankt-Peterburg, Leningradskaya oblast', Russia, 199034"", 'geometry': {'location': {'lat': 59.9325035, 'lng': 30.2709947}, 'viewport': {'northeast': {'lat': 59.93381502989272, 'lng': 30.27221452989272}, 'southwest': {'lat': 59.93111537010728, 'lng': 30.26951487010728}}}, 'name': 'The Baltic Institute of Ecology, Politics and Law', 'place_id': 'ChIJaeHbchIxlkYRZqVtxn0sfGQ', 'types': ['university', 'point_of_interest', 'establishment']}",False
106,Universidad de León,,León,,7/10/2018,4/23/2018,Web Service,,,,,,,Mexico,Education,,,,grid.441541.1,,"Campus de Vegazana, s/n, 24071 León, Spain","{'location': {'lat': 42.6122612, 'lng': -5.5603698}, 'viewport': {'northeast': {'lat': 42.61638230000001, 'lng': -5.553824150000001}, 'southwest': {'lat': 42.60710229999999, 'lng': -5.56808515}}}",University of León,ChIJyzUnQJaaNw0R1e9Atp9WRD8,"['university', 'point_of_interest', 'establishment']","{'formatted_address': 'Campus de Vegazana, s/n, 24071 León, Spain', 'geometry': {'location': {'lat': 42.6122612, 'lng': -5.5603698}, 'viewport': {'northeast': {'lat': 42.61638230000001, 'lng': -5.553824150000001}, 'southwest': {'lat': 42.60710229999999, 'lng': -5.56808515}}}, 'name': 'University of León', 'place_id': 'ChIJyzUnQJaaNw0R1e9Atp9WRD8', 'types': ['university', 'point_of_interest', 'establishment']}",False
107,Guizhou Cancer Hospital,,Guiyang,,7/10/2018,4/23/2018,Web Service,,,,,,,China,Healthcare,,,,grid.459595.1,,"['Beijing W Rd, Yunyan Qu, Guiyang Shi, Guizhou Sheng, China', 'Shuangfeng Rd, Yunyan Qu, Guiyang Shi, Guizhou Sheng, China']","[{'location': {'lat': 26.587646, 'lng': 106.692398}, 'viewport': {'northeast': {'lat': 26.58891357989272, 'lng': 106.6937442298927}, 'southwest': {'lat': 26.58621392010728, 'lng': 106.6910445701073}}}, {'location': {'lat': 26.588112, 'lng': 106.690437}, 'viewport': {'northeast': {'lat': 26.58943592989272, 'lng': 106.6918914798927}, 'southwest': {'lat': 26.58673627010728, 'lng': 106.6891918201073}}}]","['Guizhou Tumor Hospital', 'Guizhou Cancer Hospital Parking Lot']","['ChIJkSNc4LBnvzYRbwzSA-FLEk4', 'ChIJ_SQjrbFnvzYREDHaLNcK2Rs']","[['health', 'point_of_interest', 'establishment'], ['parking', 'point_of_interest', 'establishment']]","[{'formatted_address': 'Beijing W Rd, Yunyan Qu, Guiyang Shi, Guizhou Sheng, China', 'geometry': {'location': {'lat': 26.587646, 'lng': 106.692398}, 'viewport': {'northeast': {'lat': 26.58891357989272, 'lng': 106.6937442298927}, 'southwest': {'lat': 26.58621392010728, 'lng': 106.6910445701073}}}, 'name': 'Guizhou Tumor Hospital', 'place_id': 'ChIJkSNc4LBnvzYRbwzSA-FLEk4', 'types': ['health', 'point_of_interest', 'establishment']}, {'formatted_address': 'Shuangfeng Rd, Yunyan Qu, Guiyang Shi, Guizhou Sheng, China', 'geometry': {'location': {'lat': 26.588112, 'lng': 106.690437}, 'viewport': {'northeast': {'lat': 26.58943592989272, 'lng': 106.6918914798927}, 'southwest': {'lat': 26.58673627010728, 'lng': 106.6891918201073}}}, 'name': 'Guizhou Cancer Hospital Parking Lot', 'place_id': 'ChIJ_SQjrbFnvzYREDHaLNcK2Rs', 'types': ['parking', 'point_of_interest', 'establishment']}]",False
108,Society for Biomedical Diabetes Research,,Duisburg,,7/10/2018,4/23/2018,Web Service,,,,,,,Germany,Healthcare,,,,grid.430360.2,,[],[],[],[],[],[],True
109,Lviv National Academy of Arts,,Lviv,,7/10/2018,4/23/2018,Web Service,,,,,,,Ukraine,,,,,grid.445821.e,,"Kubiiovycha Street, 38, L'viv, L'vivs'ka oblast, Ukraine, 79011","{'location': {'lat': 49.8247925, 'lng': 24.0386511}, 'viewport': {'northeast': {'lat': 49.82617227989272, 'lng': 24.04013632989272}, 'southwest': {'lat': 49.82347262010727, 'lng': 24.03743667010728}}}",Lviv National Academy of Arts,ChIJxUpbzF7dOkcRU-BJMDXVIGc,"['university', 'point_of_interest', 'establishment']","{'formatted_address': ""Kubiiovycha Street, 38, L'viv, L'vivs'ka oblast, Ukraine, 79011"", 'geometry': {'location': {'lat': 49.8247925, 'lng': 24.0386511}, 'viewport': {'northeast': {'lat': 49.82617227989272, 'lng': 24.04013632989272}, 'southwest': {'lat': 49.82347262010727, 'lng': 24.03743667010728}}}, 'name': 'Lviv National Academy of Arts', 'place_id': 'ChIJxUpbzF7dOkcRU-BJMDXVIGc', 'types': ['university', 'point_of_interest', 'establishment']}",False
110,Atlantic University,,Virginia Beach,Virginia,7/10/2018,4/23/2018,Web Service,,,,,,,United States,Education,,,,grid.441542.2,,"215 67th St, Virginia Beach, VA 23451, USA","{'location': {'lat': 36.8927581, 'lng': -75.9909523}, 'viewport': {'northeast': {'lat': 36.89407532989272, 'lng': -75.98972212010729}, 'southwest': {'lat': 36.89137567010728, 'lng': -75.99242177989274}}}",Atlantic University,ChIJ_zxu_KruuokRhrxSVEcZy9o,"['university', 'point_of_interest', 'establishment']","{'formatted_address': '215 67th St, Virginia Beach, VA 23451, USA', 'geometry': {'location': {'lat': 36.8927581, 'lng': -75.9909523}, 'viewport': {'northeast': {'lat': 36.89407532989272, 'lng': -75.98972212010729}, 'southwest': {'lat': 36.89137567010728, 'lng': -75.99242177989274}}}, 'name': 'Atlantic University', 'place_id': 'ChIJ_zxu_KruuokRhrxSVEcZy9o', 'types': ['university', 'point_of_interest', 'establishment']}",False
111,Shenzhen Occupational Disease Prevention Hospital,,Luohu,,7/10/2018,4/23/2018,Web Service,,,,,,,China,Healthcare,,,,grid.459596.2,,"82 Guiyuan Rd, Luohu Qu, Shenzhen Shi, Guangdong Sheng, China, 518001","{'location': {'lat': 22.5491703, 'lng': 114.1126136}, 'viewport': {'northeast': {'lat': 22.55052072989272, 'lng': 114.1138848298927}, 'southwest': {'lat': 22.54782107010728, 'lng': 114.1111851701073}}}",Shenzhen Prevention and Treatment Center for Occupational Diseases Guiyuan Community Health Service Center,ChIJLUaMobv1AzQRcuMO9kd96Yc,"['hospital', 'point_of_interest', 'establishment']","{'formatted_address': '82 Guiyuan Rd, Luohu Qu, Shenzhen Shi, Guangdong Sheng, China, 518001', 'geometry': {'location': {'lat': 22.5491703, 'lng': 114.1126136}, 'viewport': {'northeast': {'lat': 22.55052072989272, 'lng': 114.1138848298927}, 'southwest': {'lat': 22.54782107010728, 'lng': 114.1111851701073}}}, 'name': 'Shenzhen Prevention and Treatment Center for Occupational Diseases Guiyuan Community Health Service Center', 'place_id': 'ChIJLUaMobv1AzQRcuMO9kd96Yc', 'types': ['hospital', 'point_of_interest', 'establishment']}",False
112,Rajiv Poor People Welfare Society,,Guntur,,7/10/2018,4/23/2018,Web Service,,,,,,,India,Not-for-Profit,,,,grid.430361.3,,[],[],[],[],[],[],True
113,Lviv Academy of Commerce,,Lviv,,7/10/2018,4/23/2018,Web Service,,,,,,,Ukraine,,,,,grid.445822.d,,"Tuhan-Baranovskoho Street, 10, L'viv, Львівська, Ukraine, 79000","{'location': {'lat': 49.8369929, 'lng': 24.0379196}, 'viewport': {'northeast': {'lat': 49.83828377989272, 'lng': 24.03946477989272}, 'southwest': {'lat': 49.83558412010728, 'lng': 24.03676512010728}}}",Lviv University of Trade and Economics,ChIJsarYl2ndOkcRuzcF_ZQB7gM,"['university', 'point_of_interest', 'establishment']","{'formatted_address': ""Tuhan-Baranovskoho Street, 10, L'viv, Львівська, Ukraine, 79000"", 'geometry': {'location': {'lat': 49.8369929, 'lng': 24.0379196}, 'viewport': {'northeast': {'lat': 49.83828377989272, 'lng': 24.03946477989272}, 'southwest': {'lat': 49.83558412010728, 'lng': 24.03676512010728}}}, 'name': 'Lviv University of Trade and Economics', 'place_id': 'ChIJsarYl2ndOkcRuzcF_ZQB7gM', 'types': ['university', 'point_of_interest', 'establishment']}",False
114,Université Chrétienne du Nord d?Haïti,,Cap-Haïtien,,7/10/2018,4/23/2018,Web Service,,,,,,,Haiti,Education,,,,grid.441543.3,,"Christian University of North Haiti, Haut Limbé, Haiti","{'location': {'lat': 19.6984209, 'lng': -72.3603408}, 'viewport': {'northeast': {'lat': 19.69996717989272, 'lng': -72.3581458}, 'southwest': {'lat': 19.69726752010727, 'lng': -72.3615789}}}",Christian University of North Haiti,ChIJnZkWZb7pto4RgSK-zjPtU_U,"['university', 'premise', 'establishment']","{'formatted_address': 'Christian University of North Haiti, Haut Limbé, Haiti', 'geometry': {'location': {'lat': 19.6984209, 'lng': -72.3603408}, 'viewport': {'northeast': {'lat': 19.69996717989272, 'lng': -72.3581458}, 'southwest': {'lat': 19.69726752010727, 'lng': -72.3615789}}}, 'name': 'Christian University of North Haiti', 'place_id': 'ChIJnZkWZb7pto4RgSK-zjPtU_U', 'types': ['university', 'premise', 'establishment']}",False
115,Third People's Hospital of Hefei,,Hefei,,7/10/2018,4/23/2018,Web Service,,,,,,,China,Healthcare,,,,grid.459597.3,,"['204 Wangjiang E Rd, Baohe Qu, Hefei Shi, Anhui Sheng, China', 'China, Anhui, Hefei, Baohe, Jinzhai Rd, 金寨南路1068号']","[{'location': {'lat': 31.82926, 'lng': 117.267279}, 'viewport': {'northeast': {'lat': 31.83061277989271, 'lng': 117.2686017298928}, 'southwest': {'lat': 31.82791312010727, 'lng': 117.2659020701073}}}, {'location': {'lat': 31.821828, 'lng': 117.259175}, 'viewport': {'northeast': {'lat': 31.82322952989272, 'lng': 117.2604342798927}, 'southwest': {'lat': 31.82052987010728, 'lng': 117.2577346201073}}}]","[""The Third People's Hospital of Hefei"", ""The Third People's Hospital of Hefei""]","['ChIJPaX1TTVhyzUR0no_ToCWMmQ', 'ChIJsdKG0TFhyzUR3gyv_coVxk4']","[['hospital', 'point_of_interest', 'establishment'], ['health', 'point_of_interest', 'establishment']]","[{'formatted_address': '204 Wangjiang E Rd, Baohe Qu, Hefei Shi, Anhui Sheng, China', 'geometry': {'location': {'lat': 31.82926, 'lng': 117.267279}, 'viewport': {'northeast': {'lat': 31.83061277989271, 'lng': 117.2686017298928},